version,rows
1730284745,"{'name': 'Ciudad del Este Guarani International Airport', 'iata': 'AGT', 'icao': 'SGES', 'lat': -25.455278, 'lon': -54.843334, 'country': 'Paraguay', 'alt': 846}"
1730284745,"{'name': 'Ciudad Juarez International Airport', 'iata': 'CJS', 'icao': 'MMCS', 'lat': 31.636129, 'lon': -106.428001, 'country': 'Mexico', 'alt': 3904}"
1730284745,"{'name': 'Ciudad Obregon International Airport', 'iata': 'CEN', 'icao': 'MMCN', 'lat': 27.39263, 'lon': -109.833, 'country': 'Mexico', 'alt': 205}"
1730284745,"{'name': 'Ciudad Real Central Airport', 'iata': 'CQM', 'icao': 'LERL', 'lat': 38.85638, 'lon': -3.97, 'country': 'Spain', 'alt': 2119}"
1730284745,"{'name': 'Ciudad Victoria International Airport', 'iata': 'CVM', 'icao': 'MMCV', 'lat': 23.703329, 'lon': -98.956398, 'country': 'Mexico', 'alt': 761}"
1730284745,"{'name': 'Claris Great Barrier Aerodrome', 'iata': 'GBZ', 'icao': 'NZGB', 'lat': -36.241402, 'lon': 175.472, 'country': 'New Zealand', 'alt': 20}"
1730284745,"{'name': 'Clarks Point Airport', 'iata': 'CLP', 'icao': 'PFCL', 'lat': 58.833698, 'lon': -158.529007, 'country': 'United States', 'alt': 80}"
1730284745,"{'name': 'Clarksburg North Central West Virginia Airport', 'iata': 'CKB', 'icao': 'KCKB', 'lat': 39.297382, 'lon': -80.2276, 'country': 'United States', 'alt': 1194}"
1730284745,"{'name': 'Clarksdale Fletcher Field Airport', 'iata': 'CKM', 'icao': 'KCKM', 'lat': 34.299702, 'lon': -90.512299, 'country': 'United States', 'alt': 173}"
1730284745,"{'name': 'Clarksville Montgomery County Regional Airport', 'iata': 'CKV', 'icao': 'KCKV', 'lat': 36.621899, 'lon': -87.415001, 'country': 'United States', 'alt': 550}"
1730284745,"{'name': 'Clemson Oconee County Regional Airport', 'iata': 'CEU', 'icao': 'KCEU', 'lat': 34.671902, 'lon': -82.886497, 'country': 'United States', 'alt': 892}"
1730284745,"{'name': 'Clermont Airport', 'iata': 'CMQ', 'icao': 'YCMT', 'lat': -22.77405, 'lon': 147.619614, 'country': 'Australia', 'alt': 907}"
1730284745,"{'name': 'Clermont-Ferrand Auvergne Airport', 'iata': 'CFE', 'icao': 'LFLC', 'lat': 45.785831, 'lon': 3.1625, 'country': 'France', 'alt': 1090}"
1730284745,"{'name': 'Cleve Airport', 'iata': 'CVC', 'icao': 'YCEE', 'lat': -33.710308, 'lon': 136.504196, 'country': 'Australia', 'alt': 582}"
1730284745,"{'name': 'Cleveland Burke Lakefront Airport', 'iata': 'BKL', 'icao': 'KBKL', 'lat': 41.516945, 'lon': -81.683334, 'country': 'United States', 'alt': 583}"
1730284745,"{'name': 'Cleveland Cuyahoga County Airport', 'iata': 'CGF', 'icao': 'KCGF', 'lat': 41.565182, 'lon': -81.488052, 'country': 'United States', 'alt': 862}"
1730284745,"{'name': 'Cleveland Hopkins International Airport', 'iata': 'CLE', 'icao': 'KCLE', 'lat': 41.410252, 'lon': -81.853897, 'country': 'United States', 'alt': 799}"
1730284745,"{'name': 'Cleveland Municipal Airport', 'iata': 'QTN', 'icao': 'KRNV', 'lat': 33.761425, 'lon': -90.757881, 'country': 'United States', 'alt': 136}"
1730284745,"{'name': 'Clifton Hills Airport', 'iata': 'CFH', 'icao': 'YCFH', 'lat': -27.01524, 'lon': 138.893326, 'country': 'Australia', 'alt': 105}"
1730284745,"{'name': 'Cloncurry Airport', 'iata': 'CNJ', 'icao': 'YCCY', 'lat': -20.668905, 'lon': 140.508514, 'country': 'Australia', 'alt': 616}"
1730284745,"{'name': 'Cloudbreak Fortescue Dave Forrest Airport', 'iata': 'KFE', 'icao': 'YFDF', 'lat': -22.292, 'lon': 119.437225, 'country': 'Australia', 'alt': 1555}"
1730284745,"{'name': 'Clovis Cannon Air Force Base', 'iata': 'CVS', 'icao': 'KCVS', 'lat': 34.385155, 'lon': -103.321701, 'country': 'United States', 'alt': 4286}"
1730284745,"{'name': 'Clovis Municipal Airport', 'iata': 'CVN', 'icao': 'KCVN', 'lat': 34.427223, 'lon': -103.078888, 'country': 'United States', 'alt': 4216}"
1730284745,"{'name': 'Cluj-Napoca International Airport', 'iata': 'CLJ', 'icao': 'LRCL', 'lat': 46.785091, 'lon': 23.68611, 'country': 'Romania', 'alt': 1035}"
1730284745,"{'name': 'Clyde River Airport', 'iata': 'YCY', 'icao': 'CYCY', 'lat': 70.486107, 'lon': -68.516602, 'country': 'Canada', 'alt': 87}"
1730284745,"{'name': 'Coari Airport', 'iata': 'CIZ', 'icao': 'SWKO', 'lat': -4.1341, 'lon': -63.134789, 'country': 'Brazil', 'alt': 137}"
1730284745,"{'name': 'Coatesville Chester County Area Airport', 'iata': 'CTH', 'icao': 'KMQS', 'lat': 39.979, 'lon': -75.865501, 'country': 'United States', 'alt': 660}"
1730284745,"{'name': 'Cobano Airport', 'iata': 'ACO', 'icao': 'MRAF', 'lat': 9.692932, 'lon': -85.092377, 'country': 'Costa Rica', 'alt': 494}"
1730284745,"{'name': 'Cobar Airport', 'iata': 'CAZ', 'icao': 'YCBA', 'lat': -31.530001, 'lon': 145.789993, 'country': 'Australia', 'alt': 724}"
1730284745,"{'name': 'Cobija Capitan Anibal Arab Airport', 'iata': 'CIJ', 'icao': 'SLCO', 'lat': -11.0404, 'lon': -68.782898, 'country': 'Bolivia', 'alt': 892}"
1730284745,"{'name': 'Cochabamba Jorge Wilstermann International Airport', 'iata': 'CBB', 'icao': 'SLCB', 'lat': -17.421, 'lon': -66.177101, 'country': 'Bolivia', 'alt': 8360}"
1730284745,"{'name': 'Cochin International Airport', 'iata': 'COK', 'icao': 'VOCI', 'lat': 10.151124, 'lon': 76.401924, 'country': 'India', 'alt': 81}"
1730284745,"{'name': 'Cocoa Beach Patrick Air Force Base', 'iata': 'COF', 'icao': 'KCOF', 'lat': 28.234051, 'lon': -80.609673, 'country': 'United States', 'alt': 6}"
1730284745,"{'name': 'Coconut Island Airport', 'iata': 'CNC', 'icao': 'YCCT', 'lat': -10.05, 'lon': 143.070007, 'country': 'Australia', 'alt': 3}"
1730284745,"{'name': 'Cocos Islands Airport', 'iata': 'CCK', 'icao': 'YPCC', 'lat': -12.188611, 'lon': 96.830559, 'country': 'Cocos (Keeling) Islands', 'alt': 10}"
1730284745,"{'name': 'Cody Yellowstone Regional Airport', 'iata': 'COD', 'icao': 'KCOD', 'lat': 44.52, 'lon': -109.019997, 'country': 'United States', 'alt': 5102}"
1730284745,"{'name': 'Coen Airport', 'iata': 'CUQ', 'icao': 'YCOE', 'lat': -13.763889, 'lon': 143.113327, 'country': 'Australia', 'alt': 532}"
1730284745,"{'name': ""Coeur d'Alene Airport"", 'iata': 'COE', 'icao': 'KCOE', 'lat': 47.773605, 'lon': -116.824165, 'country': 'United States', 'alt': 2295}"
1730284745,"{'name': 'Coffs Harbour Airport', 'iata': 'CFS', 'icao': 'YCFS', 'lat': -30.320499, 'lon': 153.116302, 'country': 'Australia', 'alt': 18}"
1730284745,"{'name': 'Cognac Chateaubernard Air Base', 'iata': 'CNG', 'icao': 'LFBG', 'lat': 45.657669, 'lon': -0.314753, 'country': 'France', 'alt': 70}"
1730284745,"{'name': 'Coimbatore International Airport', 'iata': 'CJB', 'icao': 'VOCB', 'lat': 11.03003, 'lon': 77.043381, 'country': 'India', 'alt': 1324}"
1730284745,"{'name': 'Coimbra Airport', 'iata': 'CBP', 'icao': 'LPCO', 'lat': 40.1572, 'lon': -8.47, 'country': 'Portugal', 'alt': 587}"
1730284745,"{'name': 'Colac Airport', 'iata': 'XCO', 'icao': 'YOLA', 'lat': -38.285877, 'lon': 143.675186, 'country': 'Australia', 'alt': 407}"
1730284745,"{'name': 'Colby Municipal Airport', 'iata': 'CBK', 'icao': 'KCBK', 'lat': 39.42614, 'lon': -101.050301, 'country': 'United States', 'alt': 3170}"
1730284745,"{'name': 'Cold Bay Airport', 'iata': 'CDB', 'icao': 'PACD', 'lat': 55.206059, 'lon': -162.725006, 'country': 'United States', 'alt': 102}"
1730284745,"{'name': 'Coldfoot Airport', 'iata': 'CXF', 'icao': 'PACX', 'lat': 67.252197, 'lon': -150.203995, 'country': 'United States', 'alt': 1042}"
1730284745,"{'name': 'Colima Airport', 'iata': 'CLQ', 'icao': 'MMIA', 'lat': 19.27701, 'lon': -103.577003, 'country': 'Mexico', 'alt': 2467}"
1730284745,"{'name': 'Coll Airport', 'iata': 'COL', 'icao': 'EGEL', 'lat': 56.601898, 'lon': -6.61778, 'country': 'United Kingdom', 'alt': 21}"
1730284745,"{'name': 'Collarenebri Airport', 'iata': 'CRB', 'icao': 'YCBR', 'lat': -29.5217, 'lon': 148.582001, 'country': 'Australia', 'alt': 152}"
1730284745,"{'name': 'College Park Airport', 'iata': 'CGS', 'icao': 'KCGS', 'lat': 38.980598, 'lon': -76.922302, 'country': 'United States', 'alt': 48}"
1730284745,"{'name': 'College Station Easterwood Airport', 'iata': 'CLL', 'icao': 'KCLL', 'lat': 30.588579, 'lon': -96.3638, 'country': 'United States', 'alt': 320}"
1730284745,"{'name': 'Collie Airport', 'iata': 'CIE', 'icao': 'YCOI', 'lat': -33.359673, 'lon': 116.201027, 'country': 'Australia', 'alt': 778}"
1730284745,"{'name': 'Collins Bay Airport', 'iata': 'YKC', 'icao': 'CYKC', 'lat': 58.236099, 'lon': -103.678001, 'country': 'Canada', 'alt': 1341}"
1730284745,"{'name': 'Collinsville Airport', 'iata': 'KCE', 'icao': 'YCSV', 'lat': -20.598829, 'lon': 147.853699, 'country': 'Australia', 'alt': 593}"
1730284745,"{'name': 'Colmar Houssen Airport', 'iata': 'CMR', 'icao': 'LFGA', 'lat': 48.110352, 'lon': 7.359147, 'country': 'France', 'alt': 630}"
1730284745,"{'name': 'Cologne Bonn Airport', 'iata': 'CGN', 'icao': 'EDDK', 'lat': 50.866001, 'lon': 7.143, 'country': 'Germany', 'alt': 302}"
1730284745,"{'name': 'Colombo Bandaranaike International Airport', 'iata': 'CMB', 'icao': 'VCBI', 'lat': 7.181139, 'lon': 79.883789, 'country': 'Sri Lanka', 'alt': 32}"
1730284745,"{'name': 'Colombo Ratmalana Airport', 'iata': 'RML', 'icao': 'VCCC', 'lat': 6.821994, 'lon': 79.8862, 'country': 'Sri Lanka', 'alt': 16}"
1730284745,"{'name': 'Colon Enrique Adolfo Jimenez Airport', 'iata': 'ONX', 'icao': 'MPEJ', 'lat': 9.356639, 'lon': -79.867401, 'country': 'Panama', 'alt': 25}"
1730284745,"{'name': 'Colonia Laguna de Los Patos International Airport', 'iata': 'CYR', 'icao': 'SUCA', 'lat': -34.456421, 'lon': -57.77047, 'country': 'Uruguay', 'alt': 43}"
1730284745,"{'name': 'Colonsay Airport', 'iata': 'CSA', 'icao': 'EGEY', 'lat': 56.057499, 'lon': -6.24306, 'country': 'United Kingdom', 'alt': 44}"
1730284745,"{'name': 'Colorado Springs Airport', 'iata': 'COS', 'icao': 'KCOS', 'lat': 38.805801, 'lon': -104.699997, 'country': 'United States', 'alt': 6187}"
1730284745,"{'name': 'Colorado Springs Meadow Lake Airport', 'iata': 'QTL', 'icao': 'KFLY', 'lat': 38.94595, 'lon': -104.571159, 'country': 'United States', 'alt': 6824}"
1730284745,"{'name': 'Columbia Jim Hamilton Owens Airport', 'iata': 'CUB', 'icao': 'KCUB', 'lat': 33.970501, 'lon': -80.995201, 'country': 'United States', 'alt': 193}"
1730284745,"{'name': 'Columbia Maury County Airport', 'iata': 'MRC', 'icao': 'KMRC', 'lat': 35.553375, 'lon': -87.177437, 'country': 'United States', 'alt': 676}"
1730284745,"{'name': 'Columbia Metropolitan Airport', 'iata': 'CAE', 'icao': 'KCAE', 'lat': 33.938831, 'lon': -81.119499, 'country': 'United States', 'alt': 236}"
1730284745,"{'name': 'Columbia Regional Airport', 'iata': 'COU', 'icao': 'KCOU', 'lat': 38.818089, 'lon': -92.219597, 'country': 'United States', 'alt': 889}"
1730284745,"{'name': 'Columbus Air Force Base', 'iata': 'CBM', 'icao': 'KCBM', 'lat': 33.64502, 'lon': -88.446068, 'country': 'United States', 'alt': 200}"
1730284745,"{'name': 'Columbus John Glenn International Airport', 'iata': 'CMH', 'icao': 'KCMH', 'lat': 39.997971, 'lon': -82.8918, 'country': 'United States', 'alt': 814}"
1730284745,"{'name': 'Columbus Lowndes County Airport', 'iata': 'UBS', 'icao': 'KUBS', 'lat': 33.46452, 'lon': -88.380753, 'country': 'United States', 'alt': 185}"
1730284745,"{'name': 'Columbus Metropolitan Airport', 'iata': 'CSG', 'icao': 'KCSG', 'lat': 32.516331, 'lon': -84.938797, 'country': 'United States', 'alt': 397}"
1730284745,"{'name': 'Columbus Municipal Airport', 'iata': 'CLU', 'icao': 'KBAK', 'lat': 39.261902, 'lon': -85.896301, 'country': 'United States', 'alt': 656}"
1730284745,"{'name': 'Columbus Municipal Airport', 'iata': 'OLU', 'icao': 'KOLU', 'lat': 41.447224, 'lon': -97.341667, 'country': 'United States', 'alt': 1444}"
1730284745,"{'name': 'Columbus Ohio State University Airport', 'iata': 'OSU', 'icao': 'KOSU', 'lat': 40.079723, 'lon': -83.073059, 'country': 'United States', 'alt': 906}"
1730284745,"{'name': 'Columbus Rickenbacker International Airport', 'iata': 'LCK', 'icao': 'KLCK', 'lat': 39.813782, 'lon': -82.927803, 'country': 'United States', 'alt': 744}"
1730284745,"{'name': 'Colville Lake Airport', 'iata': 'YCK', 'icao': 'CYVL', 'lat': 67.03894, 'lon': -126.079613, 'country': 'Canada', 'alt': 843}"
1730284745,"{'name': 'Comiso Airport', 'iata': 'CIY', 'icao': 'LICB', 'lat': 36.990002, 'lon': 14.6, 'country': 'Italy', 'alt': 620}"
1730284745,"{'name': 'Comodoro Rivadavia International Airport', 'iata': 'CRD', 'icao': 'SAVC', 'lat': -45.785301, 'lon': -67.4655, 'country': 'Argentina', 'alt': 190}"
1730284745,"{'name': 'Comox Valley Airport', 'iata': 'YQQ', 'icao': 'CYQQ', 'lat': 49.710831, 'lon': -124.886002, 'country': 'Canada', 'alt': 84}"
1730284745,"{'name': 'Compton Woodley Airport', 'iata': 'CPM', 'icao': 'KCPM', 'lat': 33.889999, 'lon': -118.244003, 'country': 'United States', 'alt': 97}"
1730284745,"{'name': 'Con Dao Airport', 'iata': 'VCS', 'icao': 'VVCS', 'lat': 8.7325, 'lon': 106.628891, 'country': 'Vietnam', 'alt': 20}"
1730284745,"{'name': 'Conakry International Airport', 'iata': 'CKY', 'icao': 'GUCY', 'lat': 9.576889, 'lon': -13.6119, 'country': 'Guinea', 'alt': 72}"
1730284745,"{'name': 'Concepcion Carriel Sur International Airport', 'iata': 'CCP', 'icao': 'SCIE', 'lat': -36.772598, 'lon': -73.063103, 'country': 'Chile', 'alt': 26}"
1730284745,"{'name': 'Concord Buchanan Field Airport', 'iata': 'CCR', 'icao': 'KCCR', 'lat': 37.988888, 'lon': -122.055557, 'country': 'United States', 'alt': 23}"
1730284745,"{'name': 'Concord Municipal Airport', 'iata': 'CON', 'icao': 'KCON', 'lat': 43.202702, 'lon': -71.502296, 'country': 'United States', 'alt': 342}"
1730284745,"{'name': 'Concord Regional Airport', 'iata': 'USA', 'icao': 'KJQF', 'lat': 35.385139, 'lon': -80.711189, 'country': 'United States', 'alt': 662}"
1730284745,"{'name': 'Condobolin Airport', 'iata': 'CBX', 'icao': 'YCDO', 'lat': -33.065353, 'lon': 147.213348, 'country': 'Australia', 'alt': 640}"
1730284745,"{'name': 'Confresa Airport', 'iata': 'CFO', 'icao': 'SJHG', 'lat': -10.6344, 'lon': -51.563599, 'country': 'Brazil', 'alt': 781}"
1730284745,"{'name': 'Congo Town South Andros Airport', 'iata': 'TZN', 'icao': 'MYAK', 'lat': 24.158367, 'lon': -77.588799, 'country': 'Bahamas', 'alt': 41}"
1730284745,"{'name': 'Conroe Lone Star Executive Airport', 'iata': 'CXO', 'icao': 'KCXO', 'lat': 30.356249, 'lon': -95.415443, 'country': 'United States', 'alt': 237}"
1730284745,"{'name': 'Constanta International Airport', 'iata': 'CND', 'icao': 'LRCK', 'lat': 44.362221, 'lon': 28.488331, 'country': 'Romania', 'alt': 353}"
1730284745,"{'name': 'Constantine Mohamed Boudiaf International Airport', 'iata': 'CZL', 'icao': 'DABC', 'lat': 36.27602, 'lon': 6.620386, 'country': 'Algeria', 'alt': 2316}"
1730284745,"{'name': 'Contadora Airport', 'iata': 'OTD', 'icao': 'MPRA', 'lat': 8.629543, 'lon': -79.034744, 'country': 'Panama', 'alt': 56}"
1730284745,"{'name': 'Coober Pedy Airport', 'iata': 'CPD', 'icao': 'YCBP', 'lat': -29.039942, 'lon': 134.720154, 'country': 'Australia', 'alt': 738}"
1730284745,"{'name': 'Cooch Behar Airport', 'iata': 'COH', 'icao': 'VECO', 'lat': 26.3305, 'lon': 89.467201, 'country': 'India', 'alt': 138}"
1730284745,"{'name': 'Cooinda Airport', 'iata': 'CDA', 'icao': 'YCOO', 'lat': -12.903207, 'lon': 132.532822, 'country': 'Australia', 'alt': 53}"
1730284745,"{'name': 'Cooktown Airport', 'iata': 'CTN', 'icao': 'YCKN', 'lat': -15.443333, 'lon': 145.183334, 'country': 'Australia', 'alt': 26}"
1730284745,"{'name': 'Cooma Snowy Mountains Airport', 'iata': 'OOM', 'icao': 'YCOM', 'lat': -36.299999, 'lon': 148.970001, 'country': 'Australia', 'alt': 3088}"
1730284745,"{'name': 'Coonabarabran Airport', 'iata': 'COJ', 'icao': 'YCBB', 'lat': -31.331585, 'lon': 149.264038, 'country': 'Australia', 'alt': 2109}"
1730284745,"{'name': 'Coonamble Airport', 'iata': 'CNB', 'icao': 'YCNM', 'lat': -30.980999, 'lon': 148.377808, 'country': 'Australia', 'alt': 592}"
1730284745,"{'name': 'Coondewanna Airport', 'iata': 'CJF', 'icao': 'YCWA', 'lat': -22.965, 'lon': 118.809998, 'country': 'Australia', 'alt': 2327}"
1730284745,"{'name': 'Cootamundra Airport', 'iata': 'CMD', 'icao': 'YCTM', 'lat': -34.624413, 'lon': 148.036713, 'country': 'Australia', 'alt': 1114}"
1730284745,"{'name': 'Copenhagen Airport', 'iata': 'CPH', 'icao': 'EKCH', 'lat': 55.616959, 'lon': 12.645637, 'country': 'Denmark', 'alt': 17}"
1730284745,"{'name': 'Copenhagen Sea Airport', 'iata': 'QEC', 'icao': 'EKCC', 'lat': 55.691055, 'lon': 12.600377, 'country': 'Denmark', 'alt': 1}"
1730284745,"{'name': 'Copiapo Desierto de Atacama Airport', 'iata': 'CPO', 'icao': 'SCAT', 'lat': -27.261248, 'lon': -70.779221, 'country': 'Chile', 'alt': 670}"
1730284745,"{'name': 'Coral Harbour Airport', 'iata': 'YZS', 'icao': 'CYZS', 'lat': 64.193329, 'lon': -83.359398, 'country': 'Canada', 'alt': 210}"
1730284745,"{'name': 'Cordoba Airport', 'iata': 'ODB', 'icao': 'LEBA', 'lat': 37.841999, 'lon': -4.84887, 'country': 'Spain', 'alt': 297}"
1730284745,"{'name': 'Cordoba International Airport', 'iata': 'COR', 'icao': 'SACO', 'lat': -31.323601, 'lon': -64.207901, 'country': 'Argentina', 'alt': 1604}"
1730284745,"{'name': 'Cordova Mudhole Smith Airport', 'iata': 'CDV', 'icao': 'PACV', 'lat': 60.491772, 'lon': -145.477005, 'country': 'United States', 'alt': 54}"
1730284745,"{'name': 'Corfu International Airport', 'iata': 'CFU', 'icao': 'LGKR', 'lat': 39.601955, 'lon': 19.912003, 'country': 'Greece', 'alt': '-1'}"
1730284745,"{'name': 'Corinth Roscoe Turner Airport', 'iata': 'CRX', 'icao': 'KCRX', 'lat': 34.914982, 'lon': -88.603477, 'country': 'United States', 'alt': 415}"
1730284745,"{'name': 'Cork Airport', 'iata': 'ORK', 'icao': 'EICK', 'lat': 51.841381, 'lon': -8.49111, 'country': 'Ireland', 'alt': 502}"
1730284745,"{'name': 'Corn Island Airport', 'iata': 'RNI', 'icao': 'MNCI', 'lat': 12.174793, 'lon': -83.059334, 'country': 'Nicaragua', 'alt': 24}"
1730284745,"{'name': 'Cornelio Procopio Airport', 'iata': 'CKO', 'icao': 'SSCP', 'lat': -23.1525, 'lon': -50.602501, 'country': 'Brazil', 'alt': 1854}"
1730284745,"{'name': 'Coro Jose Leonardo Chirinos Airport', 'iata': 'CZE', 'icao': 'SVCR', 'lat': 11.41486, 'lon': -69.681602, 'country': 'Venezuela', 'alt': 52}"
1730284745,"{'name': 'Corowa Airport', 'iata': 'CWW', 'icao': 'YCOR', 'lat': -35.994701, 'lon': 146.356995, 'country': 'Australia', 'alt': 469}"
1730284745,"{'name': 'Corozal Airport', 'iata': 'CZH', 'icao': 'MZCZ', 'lat': 18.382221, 'lon': -88.410835, 'country': 'Belize', 'alt': 39}"
1730284745,"{'name': 'Corozal Las Brujas Airport', 'iata': 'CZU', 'icao': 'SKCZ', 'lat': 9.333333, 'lon': -75.283302, 'country': 'Colombia', 'alt': 528}"
1730284745,"{'name': 'Corpus Christi International Airport', 'iata': 'CRP', 'icao': 'KCRP', 'lat': 27.770361, 'lon': -97.501198, 'country': 'United States', 'alt': 44}"
1730284745,"{'name': 'Corpus Christi Naval Air Station', 'iata': 'NGP', 'icao': 'KNGP', 'lat': 27.691982, 'lon': -97.288437, 'country': 'United States', 'alt': 17}"
1730284745,"{'name': 'Correia Pinto Planalto Serrano Regional Airport', 'iata': 'EEA', 'icao': 'SNCP', 'lat': -27.634167, 'lon': -50.358334, 'country': 'Brazil', 'alt': 2887}"
1730284745,"{'name': 'Corrientes International Airport', 'iata': 'CNQ', 'icao': 'SARC', 'lat': -27.445499, 'lon': -58.761799, 'country': 'Argentina', 'alt': 203}"
1730284745,"{'name': 'Corsicana Municipal Airport', 'iata': 'CRS', 'icao': 'KCRS', 'lat': 32.027225, 'lon': -96.39785, 'country': 'United States', 'alt': 442}"
1730284745,"{'name': 'Cortez Municipal Airport', 'iata': 'CEZ', 'icao': 'KCEZ', 'lat': 37.302776, 'lon': -108.62722, 'country': 'United States', 'alt': 5918}"
1730284745,"{'name': 'Corumba International Airport', 'iata': 'CMG', 'icao': 'SBCR', 'lat': -19.0119, 'lon': -57.673, 'country': 'Brazil', 'alt': 461}"
1730284745,"{'name': 'Corvallis Municipal Airport', 'iata': 'CVO', 'icao': 'KCVO', 'lat': 44.501186, 'lon': -123.285698, 'country': 'United States', 'alt': 243}"
1730284745,"{'name': 'Corvo Airport', 'iata': 'CVU', 'icao': 'LPCR', 'lat': 39.671379, 'lon': -31.1166, 'country': 'Portugal', 'alt': 98}"
1730284745,"{'name': 'Cotabato Awang Airport', 'iata': 'CBO', 'icao': 'RPWC', 'lat': 7.165242, 'lon': 124.209602, 'country': 'Philippines', 'alt': 189}"
1730284745,"{'name': 'Cotonou Cadjehoun Airport', 'iata': 'COO', 'icao': 'DBBB', 'lat': 6.357228, 'lon': 2.384353, 'country': 'Benin', 'alt': 19}"
1730284745,"{'name': 'Cotulla La Salle County Airport', 'iata': 'COT', 'icao': 'KCOT', 'lat': 28.45669, 'lon': -99.2183, 'country': 'United States', 'alt': 474}"
1730284745,"{'name': 'Council Bluffs Municipal Airport', 'iata': 'CBF', 'icao': 'KCBF', 'lat': 41.259201, 'lon': -95.760597, 'country': 'United States', 'alt': 1253}"
1730284745,"{'name': 'Courchevel Altiport', 'iata': 'CVF', 'icao': 'LFLJ', 'lat': 45.39666, 'lon': 6.633611, 'country': 'France', 'alt': 6580}"
1730284745,"{'name': 'Coventry Airport', 'iata': 'CVT', 'icao': 'EGBE', 'lat': 52.36972, 'lon': -1.47972, 'country': 'United Kingdom', 'alt': 267}"
1730284745,"{'name': 'Cowra Airport', 'iata': 'CWT', 'icao': 'YCWR', 'lat': -33.846588, 'lon': 148.647888, 'country': 'Australia', 'alt': 964}"
1730284745,"{'name': ""Cox's Bazar Airport"", 'iata': 'CXB', 'icao': 'VGCB', 'lat': 21.45219, 'lon': 91.963882, 'country': 'Bangladesh', 'alt': 12}"
1730284745,"{'name': 'Cozumel International Airport', 'iata': 'CZM', 'icao': 'MMCZ', 'lat': 20.5224, 'lon': -86.925598, 'country': 'Mexico', 'alt': 15}"
1730284745,"{'name': 'Craig Moffat Airport', 'iata': 'CIG', 'icao': 'KCAG', 'lat': 40.495201, 'lon': -107.522003, 'country': 'United States', 'alt': 6193}"
1730284745,"{'name': 'Craiova International Airport', 'iata': 'CRA', 'icao': 'LRCV', 'lat': 44.31813, 'lon': 23.888611, 'country': 'Romania', 'alt': 626}"
1730284745,"{'name': 'Cranbrook Canadian Rockies International Airport', 'iata': 'YXC', 'icao': 'CYXC', 'lat': 49.612221, 'lon': -115.780998, 'country': 'Canada', 'alt': 3084}"
1730284745,"{'name': 'Cranfield Airport', 'iata': 'QKT', 'icao': 'EGTC', 'lat': 52.072224, 'lon': -0.616667, 'country': 'United Kingdom', 'alt': 358}"
1730284745,"{'name': 'Crateus Airport', 'iata': 'JCS', 'icao': 'SNWS', 'lat': -5.211346, 'lon': -40.704185, 'country': 'Brazil', 'alt': 1037}"
1730284745,"{'name': 'Crawfordsville Regional Airport', 'iata': 'QTJ', 'icao': 'KCFJ', 'lat': 39.974781, 'lon': -86.92086, 'country': 'United States', 'alt': 794}"
1730284745,"{'name': 'Creil Air Base', 'iata': 'CSF', 'icao': 'LFPC', 'lat': 49.253609, 'lon': 2.519167, 'country': 'France', 'alt': 291}"
1730284745,"{'name': 'Crescent City Del Norte County Airport', 'iata': 'CEC', 'icao': 'KCEC', 'lat': 41.779999, 'lon': -124.235832, 'country': 'United States', 'alt': 57}"
1730284745,"{'name': 'Crestview Bob Sikes Airport', 'iata': 'CEW', 'icao': 'KCEW', 'lat': 30.77883, 'lon': -86.522102, 'country': 'United States', 'alt': 213}"
1730284745,"{'name': 'Criciuma Diomicio Freitas Airport', 'iata': 'CCM', 'icao': 'SBCM', 'lat': -28.725834, 'lon': -49.424721, 'country': 'Brazil', 'alt': 93}"
1730284745,"{'name': 'Croker Island Airport', 'iata': 'CKI', 'icao': 'YCKI', 'lat': -11.162432, 'lon': 132.482437, 'country': 'Australia', 'alt': 49}"
1730284745,"{'name': 'Crooked Island Colonel Hill Airport', 'iata': 'CRI', 'icao': 'MYCI', 'lat': 22.746042, 'lon': -74.176781, 'country': 'Bahamas', 'alt': 16}"
1730284745,"{'name': 'Crookston Municipal Airport', 'iata': 'CKN', 'icao': 'KCKN', 'lat': 47.841702, 'lon': -96.621597, 'country': 'United States', 'alt': 899}"
1730284745,"{'name': 'Cross City Airport', 'iata': 'CTY', 'icao': 'KCTY', 'lat': 29.6355, 'lon': -83.104797, 'country': 'United States', 'alt': 42}"
1730284745,"{'name': 'Cross Lake Airport', 'iata': 'YCR', 'icao': 'CYCR', 'lat': 54.61306, 'lon': -97.751442, 'country': 'Canada', 'alt': 685}"
1730284745,"{'name': 'Crossville Memorial Whitson Field Airport', 'iata': 'CSV', 'icao': 'KCSV', 'lat': 35.951302, 'lon': -85.084999, 'country': 'United States', 'alt': 1881}"
1730284745,"{'name': 'Crotone Airport', 'iata': 'CRV', 'icao': 'LIBC', 'lat': 38.997219, 'lon': 17.08016, 'country': 'Italy', 'alt': 521}"
1730284745,"{'name': 'Croydon Airport', 'iata': 'CDQ', 'icao': 'YCRY', 'lat': -18.218599, 'lon': 142.253448, 'country': 'Australia', 'alt': 388}"
1730284745,"{'name': 'Cruzeiro do Sul International Airport', 'iata': 'CZS', 'icao': 'SBCZ', 'lat': -7.5999, 'lon': -72.769402, 'country': 'Brazil', 'alt': 637}"
1730284745,"{'name': 'Cucuta Camilo Daza International Airport', 'iata': 'CUC', 'icao': 'SKCC', 'lat': 7.931389, 'lon': -72.514099, 'country': 'Colombia', 'alt': 1098}"
1730284745,"{'name': 'Cue Airport', 'iata': 'CUY', 'icao': 'YCUE', 'lat': -27.448376, 'lon': 117.919884, 'country': 'Australia', 'alt': 1464}"
1730284745,"{'name': 'Cuenca Mariscal Lamar International Airport', 'iata': 'CUE', 'icao': 'SECU', 'lat': -2.88946, 'lon': -78.984299, 'country': 'Ecuador', 'alt': 8306}"
1730284745,"{'name': 'Cuernavaca General Mariano Matamoros Airport', 'iata': 'CVJ', 'icao': 'MMCB', 'lat': 18.834761, 'lon': -99.261299, 'country': 'Mexico', 'alt': 4277}"
1730284745,"{'name': 'Cuiaba Marechal Rondon International Airport', 'iata': 'CGB', 'icao': 'SBCY', 'lat': -15.6529, 'lon': -56.116699, 'country': 'Brazil', 'alt': 617}"
1730284745,"{'name': 'Culiacan International Airport', 'iata': 'CUL', 'icao': 'MMCL', 'lat': 24.76454, 'lon': -107.473999, 'country': 'Mexico', 'alt': 108}"
1730284745,"{'name': 'Cumana Antonio Jose de Sucre Airport', 'iata': 'CUM', 'icao': 'SVCU', 'lat': 10.45033, 'lon': -64.130402, 'country': 'Venezuela', 'alt': 25}"
1730284745,"{'name': 'Cuneo Levaldigi Airport', 'iata': 'CUF', 'icao': 'LIMZ', 'lat': 44.547009, 'lon': 7.623217, 'country': 'Italy', 'alt': 1267}"
1730284745,"{'name': 'Cunnamulla Airport', 'iata': 'CMA', 'icao': 'YCMU', 'lat': -28.031389, 'lon': 145.616104, 'country': 'Australia', 'alt': 630}"
1730284745,"{'name': 'Curitiba Afonso Pena International Airport', 'iata': 'CWB', 'icao': 'SBCT', 'lat': -25.5284, 'lon': -49.175701, 'country': 'Brazil', 'alt': 2988}"
1730284745,"{'name': 'Curitiba Bacacheri Airport', 'iata': 'BFH', 'icao': 'SBBI', 'lat': -25.4025, 'lon': -49.233891, 'country': 'Brazil', 'alt': '-1'}"
1730284745,"{'name': 'Curtin Airport', 'iata': 'DCN', 'icao': 'YCIN', 'lat': -17.580511, 'lon': 123.828598, 'country': 'Australia', 'alt': 285}"
1730284745,"{'name': 'Cusco Alejandro Velasco Astete International Airport', 'iata': 'CUZ', 'icao': 'SPZO', 'lat': -13.5357, 'lon': -71.938698, 'country': 'Peru', 'alt': 10860}"
1730284745,"{'name': 'Cut Bank Municipal Airport', 'iata': 'CTB', 'icao': 'KCTB', 'lat': 48.608349, 'lon': -112.375999, 'country': 'United States', 'alt': 3857}"
1730284745,"{'name': 'Cuxhaven Nordholz Airport', 'iata': 'FCN', 'icao': 'ETMN', 'lat': 53.7677, 'lon': 8.6585, 'country': 'Germany', 'alt': 74}"
1730284745,"{'name': 'Cuyo Airport', 'iata': 'CYU', 'icao': 'RPLO', 'lat': 10.8581, 'lon': 121.069, 'country': 'Philippines', 'alt': 13}"
1730284745,"{'name': 'Czestochowa Rudniki Airport', 'iata': 'CZW', 'icao': 'EPRU', 'lat': 50.884998, 'lon': 19.2047, 'country': 'Poland', 'alt': 860}"
1730284745,"{'name': 'Da Lat Lien Khuong Airport', 'iata': 'DLI', 'icao': 'VVDL', 'lat': 11.75056, 'lon': 108.373611, 'country': 'Vietnam', 'alt': 3156}"
1730284745,"{'name': 'Da Nang International Airport', 'iata': 'DAD', 'icao': 'VVDN', 'lat': 16.043909, 'lon': 108.199303, 'country': 'Vietnam', 'alt': 33}"
1730284745,"{'name': 'Dabo Airport', 'iata': 'SIQ', 'icao': 'WIKS', 'lat': -0.479148, 'lon': 104.57917, 'country': 'Indonesia', 'alt': 100}"
1730284745,"{'name': 'Daegu International Airport', 'iata': 'TAE', 'icao': 'RKTN', 'lat': 35.8941, 'lon': 128.658798, 'country': 'South Korea', 'alt': 116}"
1730284745,"{'name': 'Dakar Blaise Diagne International Airport', 'iata': 'DSS', 'icao': 'GOBD', 'lat': 14.671111, 'lon': -17.066944, 'country': 'Senegal', 'alt': 290}"
1730284745,"{'name': 'Dakar International Airport', 'iata': 'DKR', 'icao': 'GOOY', 'lat': 14.7397, 'lon': -17.4902, 'country': 'Senegal', 'alt': 85}"
1730284745,"{'name': 'Dakhla Airport', 'iata': 'VIL', 'icao': 'GMMH', 'lat': 23.713333, 'lon': -15.935, 'country': 'Morocco', 'alt': 36}"
1730284745,"{'name': 'Dalaman Airport', 'iata': 'DLM', 'icao': 'LTBS', 'lat': 36.713051, 'lon': 28.7925, 'country': 'Turkey', 'alt': 20}"
1730284745,"{'name': 'Dalanzadgad Airport', 'iata': 'DLZ', 'icao': 'ZMDZ', 'lat': 43.608063, 'lon': 104.371773, 'country': 'Mongolia', 'alt': 4767}"
1730284745,"{'name': 'Dalby Airport', 'iata': 'DBY', 'icao': 'YDAY', 'lat': -27.1553, 'lon': 151.266998, 'country': 'Australia', 'alt': 1137}"
1730284745,"{'name': 'Daleville Cairns Army Airfield', 'iata': 'OZR', 'icao': 'KOZR', 'lat': 31.277718, 'lon': -85.71273, 'country': 'United States', 'alt': 298}"
1730284745,"{'name': 'Dalgaranga Gold Mine Airport', 'iata': 'DGD', 'icao': 'YDGA', 'lat': -27.830412, 'lon': 117.316521, 'country': 'Australia', 'alt': 1455}"
1730284745,"{'name': 'Dalhart Municipal Airport', 'iata': 'DHT', 'icao': 'KDHT', 'lat': 36.022579, 'lon': -102.546997, 'country': 'United States', 'alt': 3991}"
1730284745,"{'name': 'Dali Airport', 'iata': 'DLU', 'icao': 'ZPDL', 'lat': 25.649401, 'lon': 100.319, 'country': 'China', 'alt': 7074}"
1730284745,"{'name': 'Dalian Zhoushuizi International Airport', 'iata': 'DLC', 'icao': 'ZYTL', 'lat': 38.96566, 'lon': 121.538597, 'country': 'China', 'alt': 107}"
1730284745,"{'name': 'Dallas Addison Airport', 'iata': 'ADS', 'icao': 'KADS', 'lat': 32.959999, 'lon': -96.830002, 'country': 'United States', 'alt': 644}"
1730284745,"{'name': 'Dallas Executive Airport', 'iata': 'RBD', 'icao': 'KRBD', 'lat': 32.680832, 'lon': -96.868332, 'country': 'United States', 'alt': 660}"
1730284745,"{'name': 'Dallas Fort Worth International Airport', 'iata': 'DFW', 'icao': 'KDFW', 'lat': 32.89682, 'lon': -97.037903, 'country': 'United States', 'alt': 607}"
1730284745,"{'name': 'Dallas Love Field Airport', 'iata': 'DAL', 'icao': 'KDAL', 'lat': 32.847111, 'lon': -96.8517, 'country': 'United States', 'alt': 487}"
1730284745,"{'name': 'Dalton Municipal Airport', 'iata': 'DNN', 'icao': 'KDNN', 'lat': 34.723057, 'lon': -84.870277, 'country': 'United States', 'alt': 710}"
1730284745,"{'name': 'Daly River Mission Airport', 'iata': 'DVR', 'icao': 'YDMN', 'lat': -13.750139, 'lon': 130.69426, 'country': 'Australia', 'alt': 46}"
1730284745,"{'name': 'Daly Waters Airport', 'iata': 'DYW', 'icao': 'YDLW', 'lat': -16.264694, 'lon': 133.383377, 'country': 'Australia', 'alt': 700}"
1730284745,"{'name': 'Damascus International Airport', 'iata': 'DAM', 'icao': 'OSDI', 'lat': 33.410629, 'lon': 36.514259, 'country': 'Syria', 'alt': 2020}"
1730284745,"{'name': 'Dammam King Fahd International Airport', 'iata': 'DMM', 'icao': 'OEDF', 'lat': 26.471161, 'lon': 49.79789, 'country': 'Saudi Arabia', 'alt': 72}"
1730284745,"{'name': 'Damme Airport', 'iata': 'QED', 'icao': 'EDWC', 'lat': 52.487595, 'lon': 8.185209, 'country': 'Germany', 'alt': 148}"
1730284745,"{'name': 'Danbury Municipal Airport', 'iata': 'DXR', 'icao': 'KDXR', 'lat': 41.371666, 'lon': -73.482224, 'country': 'United States', 'alt': 458}"
1730284745,"{'name': 'Dandong Langtou Airport', 'iata': 'DDG', 'icao': 'ZYDD', 'lat': 40.025551, 'lon': 124.286598, 'country': 'China', 'alt': 154}"
1730284745,"{'name': 'Dang Airport', 'iata': 'DNP', 'icao': 'VNDG', 'lat': 28.111042, 'lon': 82.294563, 'country': 'Nepal', 'alt': 2104}"
1730284745,"{'name': 'Dangriga Airport', 'iata': 'DGA', 'icao': 'MZPB', 'lat': 16.982389, 'lon': -88.231003, 'country': 'Belize', 'alt': 155}"
1730284745,"{'name': 'Danville Regional Airport', 'iata': 'DAN', 'icao': 'KDAN', 'lat': 36.572899, 'lon': -79.336098, 'country': 'United States', 'alt': 571}"
1730284745,"{'name': 'Danville Vermilion Regional Airport', 'iata': 'DNV', 'icao': 'KDNV', 'lat': 40.197224, 'lon': -87.596947, 'country': 'United States', 'alt': 696}"
1730284745,"{'name': 'Daocheng Yading Airport', 'iata': 'DCY', 'icao': 'ZUDC', 'lat': 29.323055, 'lon': 100.053329, 'country': 'China', 'alt': 14418}"
1730284745,"{'name': 'Daqing Sartu Airport', 'iata': 'DQA', 'icao': 'ZYDQ', 'lat': 46.748684, 'lon': 125.139725, 'country': 'China', 'alt': 499}"
1730284745,"{'name': 'Dar-es-Salaam Julius Nyerere International Airport', 'iata': 'DAR', 'icao': 'HTDA', 'lat': -6.87811, 'lon': 39.202621, 'country': 'Tanzania', 'alt': 182}"
1730284745,"{'name': 'Darbhanga Airport', 'iata': 'DBR', 'icao': 'VE89', 'lat': 26.194721, 'lon': 85.917503, 'country': 'India', 'alt': 171}"
1730284745,"{'name': 'Darnley Island Airport', 'iata': 'NLF', 'icao': 'YDNI', 'lat': -9.58333, 'lon': 143.766998, 'country': 'Australia', 'alt': '-1'}"
1730284745,"{'name': 'Daru Airport', 'iata': 'DAU', 'icao': 'AYDU', 'lat': -9.08676, 'lon': 143.207993, 'country': 'Papua New Guinea', 'alt': 20}"
1730284745,"{'name': 'Darwin International Airport', 'iata': 'DRW', 'icao': 'YPDN', 'lat': -12.414365, 'lon': 130.879883, 'country': 'Australia', 'alt': 95}"
1730284745,"{'name': 'Dasoguz Airport', 'iata': 'TAZ', 'icao': 'UTAT', 'lat': 41.761101, 'lon': 59.826698, 'country': 'Turkmenistan', 'alt': 272}"
1730284745,"{'name': 'Datong Yungang Airport', 'iata': 'DAT', 'icao': 'ZBDT', 'lat': 40.055538, 'lon': 113.481361, 'country': 'China', 'alt': 3442}"
1730284745,"{'name': 'Davao City Francisco Bangoy International Airport', 'iata': 'DVO', 'icao': 'RPMD', 'lat': 7.125522, 'lon': 125.645699, 'country': 'Philippines', 'alt': 96}"
1730284745,"{'name': 'Davenport Municipal Airport', 'iata': 'DVN', 'icao': 'KDVN', 'lat': 41.610298, 'lon': -90.588303, 'country': 'United States', 'alt': 751}"
1730284745,"{'name': 'David Enrique Malek International Airport', 'iata': 'DAV', 'icao': 'MPDA', 'lat': 8.391003, 'lon': -82.434898, 'country': 'Panama', 'alt': 89}"
1730284745,"{'name': 'Davis Plateau Skiway', 'iata': 'QAD', 'icao': 'AT07', 'lat': -68.469635, 'lon': 78.790894, 'country': 'Antarctica', 'alt': 1528}"
1730284745,"{'name': 'Dawadmi Domestic Airport', 'iata': 'DWD', 'icao': 'OEDW', 'lat': 24.445545, 'lon': 44.1287, 'country': 'Saudi Arabia', 'alt': 3249}"
1730284745,"{'name': 'Dawei Airport', 'iata': 'TVY', 'icao': 'VYDW', 'lat': 14.1, 'lon': 98.199997, 'country': 'Myanmar (Burma)', 'alt': 84}"
1730284745,"{'name': 'Dawson City Airport', 'iata': 'YDA', 'icao': 'CYDA', 'lat': 64.043053, 'lon': -139.127625, 'country': 'Canada', 'alt': 1109}"
1730284745,"{'name': 'Dawson Community Airport', 'iata': 'GDV', 'icao': 'KGDV', 'lat': 47.13871, 'lon': -104.806999, 'country': 'United States', 'alt': 2458}"
1730284745,"{'name': 'Dawson Creek Airport', 'iata': 'YDQ', 'icao': 'CYDQ', 'lat': 55.742329, 'lon': -120.182999, 'country': 'Canada', 'alt': 2148}"
1730284745,"{'name': 'Dayong Zhangjiajie Hehua Airport', 'iata': 'DYG', 'icao': 'ZGDY', 'lat': 29.107121, 'lon': 110.445686, 'country': 'China', 'alt': 692}"
1730284745,"{'name': 'Dayrestan Qeshm Island Airport', 'iata': 'GSM', 'icao': 'OIKQ', 'lat': 26.757778, 'lon': 55.905277, 'country': 'Iran', 'alt': 27}"
1730284745,"{'name': 'Dayton International Airport', 'iata': 'DAY', 'icao': 'KDAY', 'lat': 39.90237, 'lon': -84.219299, 'country': 'United States', 'alt': 1009}"
1730284745,"{'name': 'Dayton Wright Brothers Airport', 'iata': 'MGY', 'icao': 'KMGY', 'lat': 39.58889, 'lon': -84.224998, 'country': 'United States', 'alt': 957}"
1730284745,"{'name': 'Daytona Beach International Airport', 'iata': 'DAB', 'icao': 'KDAB', 'lat': 29.185192, 'lon': -81.060829, 'country': 'United States', 'alt': 34}"
1730284745,"{'name': 'Dazhou Jinya Airport', 'iata': 'DZH', 'icao': 'ZUDA', 'lat': 31.047243, 'lon': 107.435455, 'country': 'China', 'alt': 1473}"
1730284745,"{'name': 'De Ridder Beauregard Regional Airport', 'iata': 'DRI', 'icao': 'KDRI', 'lat': 30.829233, 'lon': -93.337662, 'country': 'United States', 'alt': 193}"
1730284745,"{'name': 'Deadhorse Airport', 'iata': 'SCC', 'icao': 'PASC', 'lat': 70.194748, 'lon': -148.464996, 'country': 'United States', 'alt': 67}"
1730284745,"{'name': ""Deadman's Cay Airport"", 'iata': 'LGI', 'icao': 'MYLD', 'lat': 23.17901, 'lon': -75.093498, 'country': 'Bahamas', 'alt': 9}"
1730284745,"{'name': 'Dease Lake Airport', 'iata': 'YDL', 'icao': 'CYDL', 'lat': 58.422218, 'lon': -130.031998, 'country': 'Canada', 'alt': 2600}"
1730284745,"{'name': 'Deauville Saint Gatien Airport', 'iata': 'DOL', 'icao': 'LFRG', 'lat': 49.363331, 'lon': 0.16, 'country': 'France', 'alt': 479}"
1730284745,"{'name': 'Deblin Airport', 'iata': 'QPD', 'icao': 'EPDE', 'lat': 51.551472, 'lon': 21.891415, 'country': 'Poland', 'alt': 380}"
1730284745,"{'name': 'Debrecen International Airport', 'iata': 'DEB', 'icao': 'LHDC', 'lat': 47.488911, 'lon': 21.61533, 'country': 'Hungary', 'alt': 359}"
1730284745,"{'name': 'Decatur Airport', 'iata': 'DEC', 'icao': 'KDEC', 'lat': 39.830002, 'lon': -88.860001, 'country': 'United States', 'alt': 682}"
1730284745,"{'name': 'Decatur Municipal Airport', 'iata': 'QTU', 'icao': 'KLUD', 'lat': 33.254257, 'lon': -97.580498, 'country': 'United States', 'alt': 1046}"
1730284745,"{'name': 'Decatur Pryor Field Regional Airport', 'iata': 'DCU', 'icao': 'KDCU', 'lat': 34.652699, 'lon': -86.945396, 'country': 'United States', 'alt': 592}"
1730284745,"{'name': 'Decimomannu Air Base', 'iata': 'DCI', 'icao': 'LIED', 'lat': 39.354088, 'lon': 8.973726, 'country': 'Italy', 'alt': 95}"
1730284745,"{'name': 'Deer Lake Airport', 'iata': 'YVZ', 'icao': 'CYVZ', 'lat': 52.653133, 'lon': -94.05587, 'country': 'Canada', 'alt': 1076}"
1730284745,"{'name': 'Deer Lake Regional Airport', 'iata': 'YDF', 'icao': 'CYDF', 'lat': 49.210831, 'lon': -57.3913, 'country': 'Canada', 'alt': 72}"
1730284745,"{'name': 'Deering Airport', 'iata': 'DRG', 'icao': 'PADE', 'lat': 66.071198, 'lon': -162.759888, 'country': 'United States', 'alt': 15}"
1730284745,"{'name': 'Dehradun Jolly Grant Airport', 'iata': 'DED', 'icao': 'VIDN', 'lat': 30.18968, 'lon': 78.180252, 'country': 'India', 'alt': 1831}"
1730284745,"{'name': 'Dekai Nop Goliat Airport', 'iata': 'DEX', 'icao': 'WAVD', 'lat': -4.853996, 'lon': 139.485672, 'country': 'Indonesia', 'alt': 180}"
1730284745,"{'name': 'Del Carmin Sayak Airport', 'iata': 'IAO', 'icao': 'RPNS', 'lat': 9.858889, 'lon': 126.013885, 'country': 'Philippines', 'alt': 10}"
1730284745,"{'name': 'Del Rio International Airport', 'iata': 'DRT', 'icao': 'KDRT', 'lat': 29.374201, 'lon': -100.927002, 'country': 'United States', 'alt': 1002}"
1730284745,"{'name': 'Delhi Indira Gandhi International Airport', 'iata': 'DEL', 'icao': 'VIDP', 'lat': 28.5665, 'lon': 77.103081, 'country': 'India', 'alt': 777}"
1730284745,"{'name': 'Deline Airport', 'iata': 'YWJ', 'icao': 'CYWJ', 'lat': 65.211006, 'lon': -123.434807, 'country': 'Canada', 'alt': 697}"
1730284745,"{'name': 'Delingha Airport', 'iata': 'HXD', 'icao': 'ZLDL', 'lat': 37.125, 'lon': 97.268608, 'country': 'China', 'alt': 9383}"
1730284745,"{'name': 'Delissaville Airport', 'iata': 'DLV', 'icao': 'YDLV', 'lat': -12.550293, 'lon': 130.686844, 'country': 'Australia', 'alt': 105}"
1730284745,"{'name': 'Delma Island Airport', 'iata': 'ZDY', 'icao': 'OMDL', 'lat': 24.508333, 'lon': 52.335278, 'country': 'United Arab Emirates', 'alt': 19}"
1730284745,"{'name': 'Delta Municipal Airport', 'iata': 'DTA', 'icao': 'KDTA', 'lat': 39.385487, 'lon': -112.502235, 'country': 'United States', 'alt': 4752}"
1730284745,"{'name': 'Dembidolo Airport', 'iata': 'DEM', 'icao': 'HADD', 'lat': 8.552196, 'lon': 34.859032, 'country': 'Ethiopia', 'alt': 5158}"
1730284745,"{'name': 'Deming Municipal Airport', 'iata': 'DMN', 'icao': 'KDMN', 'lat': 32.262989, 'lon': -107.721733, 'country': 'United States', 'alt': 4311}"
1730284745,"{'name': 'Den Helder Airport', 'iata': 'DHR', 'icao': 'EHKD', 'lat': 52.923351, 'lon': 4.780625, 'country': 'Netherlands', 'alt': 3}"
1730284745,"{'name': 'Denham Airport', 'iata': 'QKD', 'icao': 'EGLD', 'lat': 51.588451, 'lon': -0.512884, 'country': 'United Kingdom', 'alt': 245}"
1730284745,"{'name': 'Deniliquin Airport', 'iata': 'DNQ', 'icao': 'YDLQ', 'lat': -35.558754, 'lon': 144.94664, 'country': 'Australia', 'alt': 319}"
1730284745,"{'name': 'Denizli Cardak Airport', 'iata': 'DNZ', 'icao': 'LTAY', 'lat': 37.785561, 'lon': 29.70129, 'country': 'Turkey', 'alt': 2795}"
1730284745,"{'name': 'Denpasar Ngurah Rai International Airport', 'iata': 'DPS', 'icao': 'WADD', 'lat': -8.74816, 'lon': 115.167099, 'country': 'Indonesia', 'alt': 14}"
1730284745,"{'name': 'Denton Enterprise Airport', 'iata': 'QQD', 'icao': 'KDTO', 'lat': 33.200832, 'lon': -97.198059, 'country': 'United States', 'alt': 642}"
1730284745,"{'name': 'Denver Centennial Airport', 'iata': 'APA', 'icao': 'KAPA', 'lat': 39.571236, 'lon': -104.850883, 'country': 'United States', 'alt': 5840}"
1730284745,"{'name': 'Denver Front Range Airport', 'iata': 'QQH', 'icao': 'KFTG', 'lat': 39.785278, 'lon': -104.543053, 'country': 'United States', 'alt': 5512}"
1730284745,"{'name': 'Denver International Airport', 'iata': 'DEN', 'icao': 'KDEN', 'lat': 39.858784, 'lon': -104.673882, 'country': 'United States', 'alt': 5433}"
1730284745,"{'name': 'Denver Rocky Mountain Metropolitan Airport', 'iata': 'BJC', 'icao': 'KBJC', 'lat': 39.900002, 'lon': -105.110001, 'country': 'United States', 'alt': 5673}"
1730284745,"{'name': 'Deoghar Airport', 'iata': 'DGH', 'icao': 'VEDO', 'lat': 24.446871, 'lon': 86.706619, 'country': 'India', 'alt': 797}"
1730284745,"{'name': 'Deputatskiy Airport', 'iata': 'DPT', 'icao': 'UEBD', 'lat': 69.392555, 'lon': 139.89537, 'country': 'Russia', 'alt': 926}"
1730284745,"{'name': 'Dera Ghazi Khan Airport', 'iata': 'DEA', 'icao': 'OPDG', 'lat': 29.961, 'lon': 70.485901, 'country': 'Pakistan', 'alt': 492}"
1730284745,"{'name': 'Derby Airport', 'iata': 'DRB', 'icao': 'YDBY', 'lat': -17.370001, 'lon': 123.661003, 'country': 'Australia', 'alt': 24}"
1730284745,"{'name': 'Des Moines International Airport', 'iata': 'DSM', 'icao': 'KDSM', 'lat': 41.53397, 'lon': -93.663002, 'country': 'United States', 'alt': 958}"
1730284745,"{'name': 'Dessie Kombolcha Airport', 'iata': 'DSE', 'icao': 'HADC', 'lat': 11.111111, 'lon': 39.724998, 'country': 'Ethiopia', 'alt': 6117}"
1730284745,"{'name': 'Destin Fort Walton Beach Airport', 'iata': 'DSI', 'icao': 'KDTS', 'lat': 30.399591, 'lon': -86.470879, 'country': 'United States', 'alt': 18}"
1730284745,"{'name': 'Destin Fort Walton Beach International Airport', 'iata': 'VPS', 'icao': 'KVPS', 'lat': 30.48333, 'lon': -86.525299, 'country': 'United States', 'alt': 87}"
1730284745,"{'name': 'Detroit Coleman A. Young International Airport', 'iata': 'DET', 'icao': 'KDET', 'lat': 42.409191, 'lon': -83.009804, 'country': 'United States', 'alt': 626}"
1730284745,"{'name': 'Detroit Lakes Airport', 'iata': 'DTL', 'icao': 'KDTL', 'lat': 46.826389, 'lon': -95.886108, 'country': 'United States', 'alt': 1396}"
1730284745,"{'name': 'Detroit Metropolitan Wayne County Airport', 'iata': 'DTW', 'icao': 'KDTW', 'lat': 42.21244, 'lon': -83.353302, 'country': 'United States', 'alt': 645}"
1730284745,"{'name': 'Detroit Willow Run Airport', 'iata': 'YIP', 'icao': 'KYIP', 'lat': 42.23772, 'lon': -83.529999, 'country': 'United States', 'alt': 716}"
1730284745,"{'name': 'Devils Lake Regional Airport', 'iata': 'DVL', 'icao': 'KDVL', 'lat': 48.113056, 'lon': -98.907501, 'country': 'United States', 'alt': 1455}"
1730284745,"{'name': 'Devonport Airport', 'iata': 'DPO', 'icao': 'YDPO', 'lat': -41.169724, 'lon': 146.430283, 'country': 'Australia', 'alt': 33}"
1730284745,"{'name': 'Dezful Airport', 'iata': 'DEF', 'icao': 'OIAD', 'lat': 32.438828, 'lon': 48.384682, 'country': 'Iran', 'alt': 500}"
1730284745,"{'name': 'Dhaalu Kudahuvadhoo Airport', 'iata': 'DDD', 'icao': 'VRMU', 'lat': 2.667222, 'lon': 72.892776, 'country': 'Maldives', 'alt': 6}"
1730284745,"{'name': 'Dhaka Shahjalal International Airport', 'iata': 'DAC', 'icao': 'VGHS', 'lat': 23.84333, 'lon': 90.397781, 'country': 'Bangladesh', 'alt': 30}"
1730284745,"{'name': 'Dhangadhi Airport', 'iata': 'DHI', 'icao': 'VNDH', 'lat': 28.753332, 'lon': 80.581947, 'country': 'Nepal', 'alt': 690}"
1730284745,"{'name': 'Dharamsala Gaggal Kangra Airport', 'iata': 'DHM', 'icao': 'VIGG', 'lat': 32.165001, 'lon': 76.263, 'country': 'India', 'alt': 2525}"
1730284745,"{'name': 'Dharavandhoo Airport', 'iata': 'DRV', 'icao': 'VRMD', 'lat': 5.156091, 'lon': 73.130257, 'country': 'Maldives', 'alt': 22}"
1730284745,"{'name': 'Dibrugarh Airport', 'iata': 'DIB', 'icao': 'VEMN', 'lat': 27.48385, 'lon': 95.016922, 'country': 'India', 'alt': 362}"
1730284745,"{'name': 'Dickinson Theodore Roosevelt Regional Airport', 'iata': 'DIK', 'icao': 'KDIK', 'lat': 46.797329, 'lon': -102.801003, 'country': 'United States', 'alt': 2592}"
1730284745,"{'name': 'Dien Bien Phu Airport', 'iata': 'DIN', 'icao': 'VVDB', 'lat': 21.397499, 'lon': 103.008003, 'country': 'Vietnam', 'alt': 1611}"
1730284745,"{'name': 'Diepholz Air Base', 'iata': 'QCD', 'icao': 'ETND', 'lat': 52.585564, 'lon': 8.340962, 'country': 'Germany', 'alt': 118}"
1730284745,"{'name': 'Dieppe Saint Aubin Airport', 'iata': 'DPE', 'icao': 'LFAB', 'lat': 49.884739, 'lon': 1.080881, 'country': 'France', 'alt': 338}"
1730284745,"{'name': 'Dijon Longvic Airport', 'iata': 'DIJ', 'icao': 'LFSD', 'lat': 47.265831, 'lon': 5.095, 'country': 'France', 'alt': 726}"
1730284745,"{'name': 'Dikson Airport', 'iata': 'DKS', 'icao': 'UODD', 'lat': 73.517807, 'lon': 80.379669, 'country': 'Russia', 'alt': 47}"
1730284745,"{'name': 'Dili Presidente Nicolau Lobato International Airport', 'iata': 'DIL', 'icao': 'WPDL', 'lat': -8.54641, 'lon': 125.524803, 'country': 'Timor-Leste (East Timor)', 'alt': 25}"
1730284745,"{'name': 'Dillingham Airport', 'iata': 'DLG', 'icao': 'PADL', 'lat': 59.044659, 'lon': -158.505005, 'country': 'United States', 'alt': 82}"
1730284745,"{'name': 'Dillon Airport', 'iata': 'DLN', 'icao': 'KDLN', 'lat': 45.255402, 'lon': -112.553001, 'country': 'United States', 'alt': 5241}"
1730284745,"{'name': 'Dimapur Airport', 'iata': 'DMU', 'icao': 'VEMR', 'lat': 25.879816, 'lon': 93.772865, 'country': 'India', 'alt': 485}"
1730284745,"{'name': 'Dinard Pleurtuit Saint-Malo Airport', 'iata': 'DNR', 'icao': 'LFRD', 'lat': 48.587769, 'lon': -2.08, 'country': 'France', 'alt': 219}"
1730284745,"{'name': 'Dipolog Airport', 'iata': 'DPL', 'icao': 'RPMG', 'lat': 8.601389, 'lon': 123.334442, 'country': 'Philippines', 'alt': 12}"
1730284745,"{'name': 'Dire Dawa International Airport', 'iata': 'DIR', 'icao': 'HADR', 'lat': 9.6247, 'lon': 41.854198, 'country': 'Ethiopia', 'alt': 3829}"
1730284745,"{'name': 'Dirranbandi Airport', 'iata': 'DRN', 'icao': 'YDBI', 'lat': -28.586632, 'lon': 148.217728, 'country': 'Australia', 'alt': 560}"
1730284745,"{'name': 'Diu Airport', 'iata': 'DIU', 'icao': 'VA1P', 'lat': 20.716667, 'lon': 70.916664, 'country': 'India', 'alt': 31}"
1730284745,"{'name': 'Divinopolis Airport', 'iata': 'DIQ', 'icao': 'SNDV', 'lat': -20.1807, 'lon': -44.870899, 'country': 'Brazil', 'alt': 2608}"
1730284745,"{'name': 'Diyarbakir Airport', 'iata': 'DIY', 'icao': 'LTCC', 'lat': 37.89389, 'lon': 40.201012, 'country': 'Turkey', 'alt': 2251}"
1730284745,"{'name': 'Djanet Inedbirene Airport', 'iata': 'DJG', 'icao': 'DAAJ', 'lat': 24.292761, 'lon': 9.452444, 'country': 'Algeria', 'alt': 3169}"
1730284745,"{'name': 'Djerba Zarzis International Airport', 'iata': 'DJE', 'icao': 'DTTJ', 'lat': 33.875031, 'lon': 10.77546, 'country': 'Tunisia', 'alt': 19}"
1730284745,"{'name': 'Djibouti Ambouli International Airport', 'iata': 'JIB', 'icao': 'HDAM', 'lat': 11.54733, 'lon': 43.159481, 'country': 'Djibouti', 'alt': 49}"
1730284745,"{'name': 'Dnipro Dnipropetrovsk International Airport', 'iata': 'DNK', 'icao': 'UKDD', 'lat': 48.35722, 'lon': 35.100552, 'country': 'Ukraine', 'alt': 481}"
1730284745,"{'name': 'Dobo Rar Gwamar Airport', 'iata': 'DOB', 'icao': 'WAPD', 'lat': -5.77376, 'lon': 134.209427, 'country': 'Indonesia', 'alt': 64}"
1730284745,"{'name': 'Docker River Airport', 'iata': 'DKV', 'icao': 'YDVR', 'lat': -24.859524, 'lon': 129.121811, 'country': 'Australia', 'alt': 1937}"
1730284745,"{'name': 'Dodge City Regional Airport', 'iata': 'DDC', 'icao': 'KDDC', 'lat': 37.763119, 'lon': -99.965401, 'country': 'United States', 'alt': 2596}"
1730284745,"{'name': 'Dodoma Airport', 'iata': 'DOD', 'icao': 'HTDO', 'lat': -6.17043, 'lon': 35.752571, 'country': 'Tanzania', 'alt': 3637}"
1730284745,"{'name': 'Doha Hamad International Airport', 'iata': 'DOH', 'icao': 'OTHH', 'lat': 25.272524, 'lon': 51.608604, 'country': 'Qatar', 'alt': 13}"
1730284745,"{'name': 'Doha International Airport', 'iata': 'DIA', 'icao': 'OTBD', 'lat': 25.261059, 'lon': 51.565094, 'country': 'Qatar', 'alt': 35}"
1730284745,"{'name': 'Dole Jura Airport', 'iata': 'DLE', 'icao': 'LFGJ', 'lat': 47.04277, 'lon': 5.435, 'country': 'France', 'alt': 645}"
1730284745,"{'name': 'Dolpa Airport', 'iata': 'DOP', 'icao': 'VNDP', 'lat': 28.985701, 'lon': 82.819099, 'country': 'Nepal', 'alt': 8200}"
1730284745,"{'name': 'Dominica Douglas Charles Airport', 'iata': 'DOM', 'icao': 'TDPD', 'lat': 15.54702, 'lon': -61.299999, 'country': 'Dominica', 'alt': 73}"
1730284745,"{'name': 'Donaueschingen Villingen Airport', 'iata': 'QCO', 'icao': 'EDTD', 'lat': 47.973747, 'lon': 8.52224, 'country': 'Germany', 'alt': 2228}"
1730284745,"{'name': 'Doncaster Sheffield Airport', 'iata': 'DSA', 'icao': 'EGCN', 'lat': 53.47472, 'lon': -1.00444, 'country': 'United Kingdom', 'alt': 55}"
1730284745,"{'name': 'Donegal Airport', 'iata': 'CFN', 'icao': 'EIDL', 'lat': 55.044189, 'lon': -8.341, 'country': 'Ireland', 'alt': 30}"
1730284745,"{'name': 'Donetsk Sergey Prokofiev International Airport', 'iata': 'DOK', 'icao': 'UKCC', 'lat': 48.073608, 'lon': 37.739719, 'country': 'Ukraine', 'alt': 791}"
1730284745,"{'name': 'Dong Hoi Airport', 'iata': 'VDH', 'icao': 'VVDH', 'lat': 17.514999, 'lon': 106.590553, 'country': 'Vietnam', 'alt': 59}"
1730284745,"{'name': 'Dongying Shengli Airport', 'iata': 'DOY', 'icao': 'ZSDY', 'lat': 37.510277, 'lon': 118.784447, 'country': 'China', 'alt': 13}"
1730284745,"{'name': 'Doomadgee Airport', 'iata': 'DMD', 'icao': 'YDMG', 'lat': -17.940001, 'lon': 138.820007, 'country': 'Australia', 'alt': 153}"
1730284745,"{'name': 'Dortmund Airport', 'iata': 'DTM', 'icao': 'EDLW', 'lat': 51.518311, 'lon': 7.612242, 'country': 'Germany', 'alt': 425}"
1730284745,"{'name': 'Dothan Regional Airport', 'iata': 'DHN', 'icao': 'KDHN', 'lat': 31.321329, 'lon': -85.4496, 'country': 'United States', 'alt': 400}"
1730284745,"{'name': 'Douala International Airport', 'iata': 'DLA', 'icao': 'FKKD', 'lat': 4.006081, 'lon': 9.719481, 'country': 'Cameroon', 'alt': 33}"
1730284745,"{'name': 'Douglas Converse County Airport', 'iata': 'DGW', 'icao': 'KDGW', 'lat': 42.796082, 'lon': -105.386177, 'country': 'United States', 'alt': 4913}"
1730284745,"{'name': 'Dourados Airport', 'iata': 'DOU', 'icao': 'SBDO', 'lat': -22.202778, 'lon': -54.925556, 'country': 'Brazil', 'alt': 1503}"
1730284745,"{'name': 'Dover Air Force Base', 'iata': 'DOV', 'icao': 'KDOV', 'lat': 39.129501, 'lon': -75.466003, 'country': 'United States', 'alt': 29}"
1730284745,"{'name': 'Doylestown Airport', 'iata': 'DYL', 'icao': 'KDYL', 'lat': 40.333, 'lon': -75.122299, 'country': 'United States', 'alt': 394}"
1730284745,"{'name': 'Drake Bay Airport', 'iata': 'DRK', 'icao': 'MRDK', 'lat': 8.718889, 'lon': -83.639046, 'country': 'Costa Rica', 'alt': 22}"
1730284745,"{'name': 'Dresden Airport', 'iata': 'DRS', 'icao': 'EDDC', 'lat': 51.133728, 'lon': 13.767246, 'country': 'Germany', 'alt': 728}"
1730284745,"{'name': 'Dryden Regional Airport', 'iata': 'YHD', 'icao': 'CYHD', 'lat': 49.831661, 'lon': -92.744102, 'country': 'Canada', 'alt': 1354}"
1730284745,"{'name': 'Drysdale River Airport', 'iata': 'DRY', 'icao': 'YDRD', 'lat': -15.713673, 'lon': 126.381226, 'country': 'Australia', 'alt': 1257}"
1730284745,"{'name': 'Dubai Al Minhad Air Base', 'iata': 'NHD', 'icao': 'OMDM', 'lat': 25.0268, 'lon': 55.366199, 'country': 'United Arab Emirates', 'alt': 165}"
1730284745,"{'name': 'Dubai International Airport', 'iata': 'DXB', 'icao': 'OMDB', 'lat': 25.252769, 'lon': 55.364441, 'country': 'United Arab Emirates', 'alt': 62}"
1730284745,"{'name': 'Dubai World Central International Airport', 'iata': 'DWC', 'icao': 'OMDW', 'lat': 24.88611, 'lon': 55.172222, 'country': 'United Arab Emirates', 'alt': 170}"
1730284745,"{'name': 'Dubbo City Airport', 'iata': 'DBO', 'icao': 'YSDU', 'lat': -32.216599, 'lon': 148.574707, 'country': 'Australia', 'alt': 935}"
1730284745,"{'name': 'Dublin Airport', 'iata': 'DUB', 'icao': 'EIDW', 'lat': 53.421379, 'lon': -6.27, 'country': 'Ireland', 'alt': 242}"
1730284745,"{'name': 'Dublin New River Valley Airport', 'iata': 'PSK', 'icao': 'KPSK', 'lat': 37.137222, 'lon': -80.678612, 'country': 'United States', 'alt': 2105}"
1730284745,"{'name': ""Dublin W.H. 'Bud' Barron Airport"", 'iata': 'DBN', 'icao': 'KDBN', 'lat': 32.5644, 'lon': -82.985298, 'country': 'United States', 'alt': 309}"
1730284745,"{'name': 'Dublin Weston Airport', 'iata': 'QIW', 'icao': 'EIWT', 'lat': 53.352337, 'lon': -6.488054, 'country': 'Ireland', 'alt': 155}"
1730284745,"{'name': 'DuBois Regional Airport', 'iata': 'DUJ', 'icao': 'KDUJ', 'lat': 41.178169, 'lon': -78.89875, 'country': 'United States', 'alt': 1798}"
1730284745,"{'name': 'Dubrovnik Rudjer Boskovic Airport', 'iata': 'DBV', 'icao': 'LDDU', 'lat': 42.561352, 'lon': 18.26824, 'country': 'Croatia', 'alt': 527}"
1730284745,"{'name': 'Dubuque Regional Airport', 'iata': 'DBQ', 'icao': 'KDBQ', 'lat': 42.400002, 'lon': -90.699997, 'country': 'United States', 'alt': 1077}"
1730284745,"{'name': 'Duluth International Airport', 'iata': 'DLH', 'icao': 'KDLH', 'lat': 46.842079, 'lon': -92.193604, 'country': 'United States', 'alt': 1427}"
1730284745,"{'name': 'Dumaguete City Sibulan Airport', 'iata': 'DGT', 'icao': 'RPVD', 'lat': 9.333714, 'lon': 123.3004, 'country': 'Philippines', 'alt': 15}"
1730284745,"{'name': 'Dumai Pinang Kampai Airport', 'iata': 'DUM', 'icao': 'WIBD', 'lat': 1.609194, 'lon': 101.433502, 'country': 'Indonesia', 'alt': 55}"
1730284745,"{'name': 'Duncan Halliburton Airport', 'iata': 'DUC', 'icao': 'KDUC', 'lat': 34.472221, 'lon': -97.959724, 'country': 'United States', 'alt': 1113}"
1730284745,"{'name': 'Duncan Town Airport', 'iata': 'DCT', 'icao': 'MYRD', 'lat': 22.181782, 'lon': -75.729286, 'country': 'Bahamas', 'alt': 15}"
1730284745,"{'name': 'Dundee Airport', 'iata': 'DND', 'icao': 'EGPN', 'lat': 56.452492, 'lon': -3.02583, 'country': 'United Kingdom', 'alt': 17}"
1730284745,"{'name': 'Dundo Airport', 'iata': 'DUE', 'icao': 'FNDU', 'lat': -7.40089, 'lon': 20.818501, 'country': 'Angola', 'alt': 2451}"
1730284745,"{'name': 'Dunedin International Airport', 'iata': 'DUD', 'icao': 'NZDN', 'lat': -45.928478, 'lon': 170.198944, 'country': 'New Zealand', 'alt': '-1'}"
1730284745,"{'name': 'Dunhuang Airport', 'iata': 'DNH', 'icao': 'ZLDH', 'lat': 40.16111, 'lon': 94.809158, 'country': 'China', 'alt': 9186}"
1730284745,"{'name': 'Dunk Island Airport', 'iata': 'DKI', 'icao': 'YDKI', 'lat': -17.939148, 'lon': 146.14151, 'country': 'Australia', 'alt': 31}"
1730284745,"{'name': 'Dunkeswell Airport', 'iata': 'QKU', 'icao': 'EGTU', 'lat': 50.860638, 'lon': -3.233885, 'country': 'United Kingdom', 'alt': 833}"
1730284745,"{'name': 'Duqm International Airport', 'iata': 'DQM', 'icao': 'OODQ', 'lat': 19.499168, 'lon': 57.641865, 'country': 'Oman', 'alt': 377}"
1730284745,"{'name': 'Durango International Airport', 'iata': 'DGO', 'icao': 'MMDO', 'lat': 24.124189, 'lon': -104.528, 'country': 'Mexico', 'alt': 6104}"
1730284745,"{'name': 'Durango La Plata County Airport', 'iata': 'DRO', 'icao': 'KDRO', 'lat': 37.151508, 'lon': -107.752998, 'country': 'United States', 'alt': 6685}"
1730284745,"{'name': 'Durant Regional Airport', 'iata': 'DUA', 'icao': 'KDUA', 'lat': 33.942299, 'lon': -96.394501, 'country': 'United States', 'alt': 699}"
1730284745,"{'name': 'Durazno Santa Bernardina International Airport', 'iata': 'DZO', 'icao': 'SUDU', 'lat': -33.35899, 'lon': -56.499264, 'country': 'Uruguay', 'alt': 299}"
1730284745,"{'name': 'Durban King Shaka International Airport', 'iata': 'DUR', 'icao': 'FALE', 'lat': -29.616667, 'lon': 31.108334, 'country': 'South Africa', 'alt': 304}"
1730284745,"{'name': 'Durban Virginia Airport', 'iata': 'VIR', 'icao': 'FAVG', 'lat': -29.770599, 'lon': 31.058399, 'country': 'South Africa', 'alt': 20}"
1730284745,"{'name': 'Durgapur Kazi Nazrul Islam Airport', 'iata': 'RDP', 'icao': 'VEDG', 'lat': 23.621389, 'lon': 87.243332, 'country': 'India', 'alt': 289}"
1730284745,"{'name': 'Durrie Airport', 'iata': 'DRR', 'icao': 'YDRI', 'lat': -25.68469, 'lon': 140.227798, 'country': 'Australia', 'alt': 225}"
1730284745,"{'name': 'Dushanbe International Airport', 'iata': 'DYU', 'icao': 'UTDD', 'lat': 38.543331, 'lon': 68.824997, 'country': 'Tajikistan', 'alt': 2575}"
1730284745,"{'name': 'Dusseldorf International Airport', 'iata': 'DUS', 'icao': 'EDDL', 'lat': 51.289452, 'lon': 6.766775, 'country': 'Germany', 'alt': 147}"
1730284745,"{'name': 'Dusseldorf Monchengladbach Airport', 'iata': 'MGL', 'icao': 'EDLN', 'lat': 51.23035, 'lon': 6.504494, 'country': 'Germany', 'alt': 125}"
1730284745,"{'name': 'Dyersburg Regional Airport', 'iata': 'QTD', 'icao': 'KDYR', 'lat': 35.996822, 'lon': -89.407188, 'country': 'United States', 'alt': 319}"
1730284745,"{'name': 'Dzaoudzi Pamandzi International Airport', 'iata': 'DZA', 'icao': 'FMCZ', 'lat': -12.8066, 'lon': 45.280548, 'country': 'Mayotte', 'alt': 23}"
1730284745,"{'name': 'Eagle Airport', 'iata': 'EAA', 'icao': 'PAEG', 'lat': 64.778168, 'lon': -141.150497, 'country': 'United States', 'alt': 908}"
1730284745,"{'name': 'Eagle County Regional Airport', 'iata': 'EGE', 'icao': 'KEGE', 'lat': 39.642551, 'lon': -106.917, 'country': 'United States', 'alt': 6547}"
1730284745,"{'name': 'Eagle River Airport', 'iata': 'EGV', 'icao': 'KEGV', 'lat': 45.929169, 'lon': -89.265831, 'country': 'United States', 'alt': 1642}"
1730284745,"{'name': 'Earlton Timiskaming Airport', 'iata': 'YXR', 'icao': 'CYXR', 'lat': 47.697742, 'lon': -79.846527, 'country': 'Canada', 'alt': 791}"
1730284745,"{'name': 'East Hampton Airport', 'iata': 'HTO', 'icao': 'KJPX', 'lat': 40.959442, 'lon': -72.251663, 'country': 'United States', 'alt': 56}"
1730284745,"{'name': 'East London Airport', 'iata': 'ELS', 'icao': 'FAEL', 'lat': -33.0355, 'lon': 27.82593, 'country': 'South Africa', 'alt': 435}"
1730284745,"{'name': 'Eastmain River Airport', 'iata': 'ZEM', 'icao': 'CZEM', 'lat': 52.226849, 'lon': -78.522507, 'country': 'Canada', 'alt': 30}"
1730284745,"{'name': 'Easton Airport', 'iata': 'ESN', 'icao': 'KESN', 'lat': 38.802776, 'lon': -76.06778, 'country': 'United States', 'alt': 72}"
1730284745,"{'name': 'Eastsound Orcas Island Airport', 'iata': 'ESD', 'icao': 'KORS', 'lat': 48.70816, 'lon': -122.910591, 'country': 'United States', 'alt': 19}"
1730284745,"{'name': 'Eau Claire Chippewa Valley Regional Airport', 'iata': 'EAU', 'icao': 'KEAU', 'lat': 44.860001, 'lon': -91.480003, 'country': 'United States', 'alt': 913}"
1730284745,"{'name': 'Eberswalde Finow Airport', 'iata': 'QEE', 'icao': 'EDAV', 'lat': 52.826389, 'lon': 13.701182, 'country': 'Germany', 'alt': 119}"
1730284745,"{'name': 'Echuca Airport', 'iata': 'ECH', 'icao': 'YECH', 'lat': -36.1572, 'lon': 144.761993, 'country': 'Australia', 'alt': 323}"
1730284745,"{'name': 'Eday Airport', 'iata': 'EOI', 'icao': 'EGED', 'lat': 59.191422, 'lon': -2.77168, 'country': 'United Kingdom', 'alt': 10}"
1730284745,"{'name': 'Edinburgh Airport', 'iata': 'EDI', 'icao': 'EGPH', 'lat': 55.950001, 'lon': -3.3725, 'country': 'United Kingdom', 'alt': 135}"
1730284745,"{'name': 'Edinburgh RAAF Base', 'iata': 'QPE', 'icao': 'YPED', 'lat': -34.702679, 'lon': 138.61618, 'country': 'Australia', 'alt': 54}"
1730284745,"{'name': 'Edmonton International Airport', 'iata': 'YEG', 'icao': 'CYEG', 'lat': 53.30772, 'lon': -113.593163, 'country': 'Canada', 'alt': 2326}"
1730284745,"{'name': 'Edremit Balikesir Koca Seyit Airport', 'iata': 'EDO', 'icao': 'LTFD', 'lat': 39.549999, 'lon': 27.01, 'country': 'Turkey', 'alt': 50}"
1730284745,"{'name': 'Edwards Air Force Base', 'iata': 'EDW', 'icao': 'KEDW', 'lat': 34.905418, 'lon': -117.883774, 'country': 'United States', 'alt': 2294}"
1730284745,"{'name': 'Eek Airport', 'iata': 'EEK', 'icao': 'PAEE', 'lat': 60.213673, 'lon': -162.043884, 'country': 'United States', 'alt': 12}"
1730284745,"{'name': 'Eggenfelden Airport', 'iata': 'QCE', 'icao': 'EDME', 'lat': 48.395996, 'lon': 12.721446, 'country': 'Germany', 'alt': 1340}"
1730284745,"{'name': 'Egilsstadir Airport', 'iata': 'EGS', 'icao': 'BIEG', 'lat': 65.283333, 'lon': -14.4013, 'country': 'Iceland', 'alt': 76}"
1730284745,"{'name': 'Eilat Ramon Airport', 'iata': 'ETM', 'icao': 'LLER', 'lat': 29.723694, 'lon': 35.011417, 'country': 'Israel', 'alt': 252}"
1730284745,"{'name': 'Eindhoven Airport', 'iata': 'EIN', 'icao': 'EHEH', 'lat': 51.45013, 'lon': 5.374528, 'country': 'Netherlands', 'alt': 74}"
1730284745,"{'name': 'Eirunepe Amaury Feitosa Tomaz Airport', 'iata': 'ERN', 'icao': 'SWEI', 'lat': -6.639178, 'lon': -69.879814, 'country': 'Brazil', 'alt': 397}"
1730284745,"{'name': 'Eisenach Kindel Airport', 'iata': 'EIB', 'icao': 'EDGE', 'lat': 50.992779, 'lon': 10.472778, 'country': 'Germany', 'alt': 1101}"
1730284745,"{'name': 'Ekati Airport', 'iata': 'YOA', 'icao': 'CYOA', 'lat': 64.699448, 'lon': -110.614441, 'country': 'Canada', 'alt': 1540}"
1730284745,"{'name': 'El Aaiun Hassan Airport', 'iata': 'EUN', 'icao': 'GMML', 'lat': 27.151661, 'lon': -13.2191, 'country': 'Morocco', 'alt': 207}"
1730284745,"{'name': 'El Alamein International Airport', 'iata': 'DBB', 'icao': 'HEAL', 'lat': 30.924444, 'lon': 28.46139, 'country': 'Egypt', 'alt': 143}"
1730284745,"{'name': 'El Arish International Airport', 'iata': 'AAC', 'icao': 'HEAR', 'lat': 31.04661, 'lon': 33.814857, 'country': 'Egypt', 'alt': 236}"
1730284745,"{'name': 'El Bagre Airport', 'iata': 'EBG', 'icao': 'SKEB', 'lat': 7.59647, 'lon': -74.808899, 'country': 'Colombia', 'alt': 180}"
1730284745,"{'name': 'El Bayadh Airport', 'iata': 'EBH', 'icao': 'DAOY', 'lat': 33.720837, 'lon': 1.09153, 'country': 'Algeria', 'alt': 4484}"
1730284745,"{'name': 'El Calafate International Airport', 'iata': 'FTE', 'icao': 'SAWC', 'lat': -50.2803, 'lon': -72.053101, 'country': 'Argentina', 'alt': 669}"
1730284745,"{'name': 'El Coca Francisco de Orellana Airport', 'iata': 'OCC', 'icao': 'SECO', 'lat': -0.46288, 'lon': -76.986801, 'country': 'Ecuador', 'alt': 834}"
1730284745,"{'name': 'El Dorado South Arkansas Regional Airport', 'iata': 'ELD', 'icao': 'KELD', 'lat': 33.22097, 'lon': -92.813202, 'country': 'United States', 'alt': 277}"
1730284745,"{'name': 'El Fasher Airport', 'iata': 'ELF', 'icao': 'HSFS', 'lat': 13.61489, 'lon': 25.32465, 'country': 'Sudan', 'alt': 2393}"
1730284745,"{'name': 'El Golea Airport', 'iata': 'ELG', 'icao': 'DAUE', 'lat': 30.57432, 'lon': 2.861646, 'country': 'Algeria', 'alt': 1295}"
1730284745,"{'name': 'El Hierro Airport', 'iata': 'VDE', 'icao': 'GCHI', 'lat': 27.81484, 'lon': -17.886999, 'country': 'Spain', 'alt': 103}"
1730284745,"{'name': 'El Lencero Jalapa Airport', 'iata': 'JAL', 'icao': 'MMJA', 'lat': 19.472221, 'lon': -96.781944, 'country': 'Mexico', 'alt': 3127}"
1730284745,"{'name': 'El Monte San Gabriel Valley Airport', 'iata': 'EMT', 'icao': 'KEMT', 'lat': 34.085583, 'lon': -118.035095, 'country': 'United States', 'alt': 279}"
1730284745,"{'name': 'El Nido Airport', 'iata': 'ENI', 'icao': 'RPEN', 'lat': 11.2025, 'lon': 119.416115, 'country': 'Philippines', 'alt': 17}"
1730284745,"{'name': 'El Obeid Airport', 'iata': 'EBD', 'icao': 'HSOB', 'lat': 13.15321, 'lon': 30.23267, 'country': 'Sudan', 'alt': 1927}"
1730284745,"{'name': 'El Oued Guemar Airport', 'iata': 'ELU', 'icao': 'DAUO', 'lat': 33.511391, 'lon': 6.776794, 'country': 'Algeria', 'alt': 203}"
1730284745,"{'name': 'El Palomar Airport', 'iata': 'EPA', 'icao': 'SADP', 'lat': -34.610001, 'lon': -58.612499, 'country': 'Argentina', 'alt': 59}"
1730284745,"{'name': 'El Paso Biggs Field Airport', 'iata': 'BIF', 'icao': 'KBIF', 'lat': 31.849501, 'lon': -106.379997, 'country': 'United States', 'alt': 3948}"
1730284745,"{'name': 'El Paso International Airport', 'iata': 'ELP', 'icao': 'KELP', 'lat': 31.802362, 'lon': -106.392876, 'country': 'United States', 'alt': 3924}"
1730284745,"{'name': 'El Vigia Juan Pablo Perez Alfonso Airport', 'iata': 'VIG', 'icao': 'SVVG', 'lat': 8.623987, 'lon': -71.673431, 'country': 'Venezuela', 'alt': 224}"
1730284745,"{'name': 'Elazig Airport', 'iata': 'EZS', 'icao': 'LTCA', 'lat': 38.606918, 'lon': 39.291409, 'country': 'Turkey', 'alt': 2927}"
1730284745,"{'name': 'Elba Marina di Campo Airport', 'iata': 'EBA', 'icao': 'LIRJ', 'lat': 42.760269, 'lon': 10.23944, 'country': 'Italy', 'alt': 31}"
1730284745,"{'name': 'Elblag Airport', 'iata': 'QPQ', 'icao': 'EPEL', 'lat': 54.140789, 'lon': 19.422499, 'country': 'Poland', 'alt': 3}"
1730284745,"{'name': 'Elcho Island Airport', 'iata': 'ELC', 'icao': 'YELD', 'lat': -12.019817, 'lon': 135.569794, 'country': 'Australia', 'alt': 100}"
1730284745,"{'name': 'Eldoret International Airport', 'iata': 'EDL', 'icao': 'HKEL', 'lat': 0.404458, 'lon': 35.238918, 'country': 'Kenya', 'alt': 6941}"
1730284745,"{'name': 'Elim Airport', 'iata': 'ELI', 'icao': 'PFEL', 'lat': 64.6147, 'lon': -162.272003, 'country': 'United States', 'alt': 162}"
1730284745,"{'name': 'Elista Airport', 'iata': 'ESL', 'icao': 'URWI', 'lat': 46.370594, 'lon': 44.332966, 'country': 'Russia', 'alt': 501}"
1730284745,"{'name': 'Eliwana Camp Airport', 'iata': 'WHB', 'icao': 'YEWA', 'lat': -22.428272, 'lon': 116.886856, 'country': 'Australia', 'alt': 1583}"
1730284745,"{'name': 'Elizabeth City Regional Airport', 'iata': 'ECG', 'icao': 'KECG', 'lat': 36.260578, 'lon': -76.1745, 'country': 'United States', 'alt': 10}"
1730284745,"{'name': 'Elizabethtown Regional Airport', 'iata': 'EKX', 'icao': 'KEKX', 'lat': 37.688889, 'lon': -85.92778, 'country': 'United States', 'alt': 775}"
1730284745,"{'name': 'Elk City Regional Business Airport', 'iata': 'ELK', 'icao': 'KELK', 'lat': 35.430801, 'lon': -99.394302, 'country': 'United States', 'alt': 2013}"
1730284745,"{'name': 'Elkhart Municipal Airport', 'iata': 'EKI', 'icao': 'KEKM', 'lat': 41.719398, 'lon': -86.003197, 'country': 'United States', 'alt': 778}"
1730284745,"{'name': 'Elko Regional Airport', 'iata': 'EKO', 'icao': 'KEKO', 'lat': 40.824909, 'lon': -115.791, 'country': 'United States', 'alt': 5140}"
1730284745,"{'name': 'Ellensburg Bowers Airport', 'iata': 'ELN', 'icao': 'KELN', 'lat': 47.033001, 'lon': -120.530998, 'country': 'United States', 'alt': 1764}"
1730284745,"{'name': 'Elmira Corning Regional Airport', 'iata': 'ELM', 'icao': 'KELM', 'lat': 42.16304, 'lon': -76.895859, 'country': 'United States', 'alt': 954}"
1730284745,"{'name': 'Ely Airport', 'iata': 'ELY', 'icao': 'KELY', 'lat': 39.301945, 'lon': -114.841942, 'country': 'United States', 'alt': 6259}"
1730284745,"{'name': 'Emden Airport', 'iata': 'EME', 'icao': 'EDWE', 'lat': 53.391178, 'lon': 7.227408, 'country': 'Germany', 'alt': 2}"
1730284745,"{'name': 'Emerald Airport', 'iata': 'EMD', 'icao': 'YEML', 'lat': -23.570068, 'lon': 148.177841, 'country': 'Australia', 'alt': 631}"
1730284745,"{'name': 'Emmen Airport', 'iata': 'EML', 'icao': 'LSME', 'lat': 47.092381, 'lon': 8.305237, 'country': 'Switzerland', 'alt': 1391}"
1730284745,"{'name': 'Emmonak Airport', 'iata': 'EMK', 'icao': 'PAEM', 'lat': 62.78513, 'lon': -164.490707, 'country': 'United States', 'alt': 7}"
1730284745,"{'name': 'Emporia Municipal Airport', 'iata': 'EMP', 'icao': 'KEMP', 'lat': 38.332066, 'lon': -96.1912, 'country': 'United States', 'alt': 1209}"
1730284745,"{'name': 'Encarnacion R.Amin Ayub Gonzalez Airport', 'iata': 'ENO', 'icao': 'SGEN', 'lat': -27.225821, 'lon': -55.837086, 'country': 'Paraguay', 'alt': 632}"
1730284745,"{'name': 'Ende H. Hasan Aroeboesman Airport', 'iata': 'ENE', 'icao': 'WATE', 'lat': -8.84929, 'lon': 121.660599, 'country': 'Indonesia', 'alt': 49}"
1730284745,"{'name': 'Eneabba Airport', 'iata': 'ENB', 'icao': 'YEEB', 'lat': -29.832872, 'lon': 115.246262, 'country': 'Australia', 'alt': 265}"
1730284745,"{'name': 'Enfidha Hammamet International Airport', 'iata': 'NBE', 'icao': 'DTNH', 'lat': 36.091946, 'lon': 10.413889, 'country': 'Tunisia', 'alt': 130}"
1730284745,"{'name': 'Enid Vance Air Force Base', 'iata': 'END', 'icao': 'KEND', 'lat': 36.339912, 'lon': -97.919434, 'country': 'United States', 'alt': 1283}"
1730284745,"{'name': 'Enid Woodring Regional Airport', 'iata': 'WDG', 'icao': 'KWDG', 'lat': 36.3792, 'lon': -97.7911, 'country': 'United States', 'alt': 1167}"
1730284745,"{'name': 'Ennis Big Sky Airport', 'iata': 'QTE', 'icao': 'KEKS', 'lat': 45.274384, 'lon': -111.648827, 'country': 'United States', 'alt': 5368}"
1730284745,"{'name': 'Enniskillen St. Angelo Airport', 'iata': 'ENK', 'icao': 'EGAB', 'lat': 54.39888, 'lon': -7.65166, 'country': 'United Kingdom', 'alt': 155}"
1730284745,"{'name': 'Enontekio Airport', 'iata': 'ENF', 'icao': 'EFET', 'lat': 68.362579, 'lon': 23.42432, 'country': 'Finland', 'alt': 1005}"
1730284745,"{'name': 'Enschede Twente Airport', 'iata': 'ENS', 'icao': 'EHTW', 'lat': 52.27441, 'lon': 6.885969, 'country': 'Netherlands', 'alt': 115}"
1730284745,"{'name': 'Ensenada Airport', 'iata': 'ESE', 'icao': 'MMES', 'lat': 31.79528, 'lon': -116.601997, 'country': 'Mexico', 'alt': 66}"
1730284745,"{'name': 'Enshi Xujiaping Airport', 'iata': 'ENH', 'icao': 'ZHES', 'lat': 30.320278, 'lon': 109.485001, 'country': 'China', 'alt': 1607}"
1730284745,"{'name': 'Entebbe International Airport', 'iata': 'EBB', 'icao': 'HUEN', 'lat': 0.042386, 'lon': 32.443501, 'country': 'Uganda', 'alt': 3782}"
1730284745,"{'name': 'Enterprise Municipal Airport', 'iata': 'ETS', 'icao': 'KEDN', 'lat': 31.2997, 'lon': -85.899902, 'country': 'United States', 'alt': 361}"
1730284745,"{'name': 'Enugu Akanu Ibiam International Airport', 'iata': 'ENU', 'icao': 'DNEN', 'lat': 6.474272, 'lon': 7.561961, 'country': 'Nigeria', 'alt': 466}"
1730284745,"{'name': 'Epinal Mirecourt Airport', 'iata': 'EPL', 'icao': 'LFSG', 'lat': 48.325001, 'lon': 6.066742, 'country': 'France', 'alt': 1084}"
1730284745,"{'name': 'Erbil International Airport', 'iata': 'EBL', 'icao': 'ORER', 'lat': 36.240482, 'lon': 43.946671, 'country': 'Iraq', 'alt': 1270}"
1730284745,"{'name': 'Ercan International Airport', 'iata': 'ECN', 'icao': 'LCEN', 'lat': 35.155071, 'lon': 33.502117, 'country': 'Turkey', 'alt': 376}"
1730284745,"{'name': 'Erechim Airport', 'iata': 'ERM', 'icao': 'SSER', 'lat': -27.663158, 'lon': -52.272152, 'country': 'Brazil', 'alt': 2487}"
1730284745,"{'name': 'Erenhot Saiwusu International Airport', 'iata': 'ERL', 'icao': 'ZBER', 'lat': 43.422501, 'lon': 112.096664, 'country': 'China', 'alt': 3301}"
1730284745,"{'name': 'Erfurt Weimar Airport', 'iata': 'ERF', 'icao': 'EDDE', 'lat': 50.979809, 'lon': 10.9581, 'country': 'Germany', 'alt': 1036}"
1730284745,"{'name': 'Erie International Airport', 'iata': 'ERI', 'icao': 'KERI', 'lat': 42.082001, 'lon': -80.176201, 'country': 'United States', 'alt': 731}"
1730284745,"{'name': 'Erie Municipal Airport', 'iata': 'QQE', 'icao': 'KEIK', 'lat': 40.010277, 'lon': -105.048058, 'country': 'United States', 'alt': 5130}"
1730284745,"{'name': 'Ernabella Airport', 'iata': 'ERB', 'icao': 'YERN', 'lat': -26.264994, 'lon': 132.176712, 'country': 'Australia', 'alt': 2317}"
1730284745,"{'name': 'Errachidia Moulay Ali Cherif Airport', 'iata': 'ERH', 'icao': 'GMFK', 'lat': 31.9475, 'lon': -4.39833, 'country': 'Morocco', 'alt': 3428}"
1730284745,"{'name': 'Erzincan Airport', 'iata': 'ERC', 'icao': 'LTCD', 'lat': 39.710201, 'lon': 39.527, 'country': 'Turkey', 'alt': 3783}"
1730284745,"{'name': 'Erzurum Airport', 'iata': 'ERZ', 'icao': 'LTCE', 'lat': 39.956501, 'lon': 41.170158, 'country': 'Turkey', 'alt': 5763}"
1730284745,"{'name': 'Esbjerg Airport', 'iata': 'EBJ', 'icao': 'EKEB', 'lat': 55.52594, 'lon': 8.553403, 'country': 'Denmark', 'alt': 97}"
1730284745,"{'name': 'Escanaba Delta County Airport', 'iata': 'ESC', 'icao': 'KESC', 'lat': 45.72266, 'lon': -87.093697, 'country': 'United States', 'alt': 609}"
1730284745,"{'name': 'Eskilstuna Airport', 'iata': 'EKT', 'icao': 'ESSU', 'lat': 59.351101, 'lon': 16.708401, 'country': 'Sweden', 'alt': 139}"
1730284745,"{'name': 'Eskisehir Airport', 'iata': 'AOE', 'icao': 'LTBY', 'lat': 39.811401, 'lon': 30.527, 'country': 'Turkey', 'alt': 2588}"
1730284745,"{'name': 'Esmeraldas Carlos Concha Torres International Airport', 'iata': 'ESM', 'icao': 'SEES', 'lat': 0.978519, 'lon': -79.626602, 'country': 'Ecuador', 'alt': 32}"
1730284745,"{'name': 'Espargos Amilcar Cabral International Airport', 'iata': 'SID', 'icao': 'GVAC', 'lat': 16.741381, 'lon': -22.9494, 'country': 'Cape Verde', 'alt': 177}"
1730284745,"{'name': 'Esperance Airport', 'iata': 'EPR', 'icao': 'YESP', 'lat': -33.68, 'lon': 121.82, 'country': 'Australia', 'alt': 470}"
1730284745,"{'name': 'Esquel Airport', 'iata': 'EQS', 'icao': 'SAVE', 'lat': -42.907902, 'lon': -71.139397, 'country': 'Argentina', 'alt': 2621}"
1730284745,"{'name': 'Essaouira Airport', 'iata': 'ESU', 'icao': 'GMMI', 'lat': 31.397499, 'lon': -9.681667, 'country': 'Morocco', 'alt': 383}"
1730284745,"{'name': 'Essen Mulheim Airport', 'iata': 'ESS', 'icao': 'EDLE', 'lat': 51.402328, 'lon': 6.937333, 'country': 'Germany', 'alt': 424}"
1730284745,"{'name': 'Eua Kaufana Airport', 'iata': 'EUA', 'icao': 'NFTE', 'lat': -21.378, 'lon': -174.957993, 'country': 'Tonga', 'alt': 325}"
1730284745,"{'name': 'Eucla Airport', 'iata': 'EUC', 'icao': 'YECL', 'lat': -31.707193, 'lon': 128.877411, 'country': 'Australia', 'alt': 20}"
1730284745,"{'name': 'Eufaula Weedon Field Airport', 'iata': 'EUF', 'icao': 'KEUF', 'lat': 31.951263, 'lon': -85.128944, 'country': 'United States', 'alt': 283}"
1730284745,"{'name': 'Eugene Airport', 'iata': 'EUG', 'icao': 'KEUG', 'lat': 44.12458, 'lon': -123.210999, 'country': 'United States', 'alt': 374}"
1730284745,"{'name': 'Eureka Airport', 'iata': 'YEU', 'icao': 'CYEU', 'lat': 79.99472, 'lon': -85.814102, 'country': 'Canada', 'alt': 272}"
1730284745,"{'name': 'Eureka Murray Field Airport', 'iata': 'EKA', 'icao': 'KEKA', 'lat': 40.805, 'lon': -124.114998, 'country': 'United States', 'alt': 7}"
1730284745,"{'name': 'Evans Head Airport', 'iata': 'EVH', 'icao': 'YEVD', 'lat': -29.101456, 'lon': 153.419312, 'country': 'Australia', 'alt': 23}"
1730284745,"{'name': 'Evanston Uinta County Airport', 'iata': 'EVW', 'icao': 'KEVW', 'lat': 41.275364, 'lon': -111.032944, 'country': 'United States', 'alt': 7137}"
1730284745,"{'name': 'Evansville Regional Airport', 'iata': 'EVV', 'icao': 'KEVV', 'lat': 38.036991, 'lon': -87.532303, 'country': 'United States', 'alt': 418}"
1730284745,"{'name': 'Eveleth Virginia Municipal Airport', 'iata': 'EVM', 'icao': 'KEVM', 'lat': 47.426388, 'lon': -92.495834, 'country': 'United States', 'alt': 1378}"
1730284745,"{'name': 'Evenes Harstad Narvik Airport', 'iata': 'EVE', 'icao': 'ENEV', 'lat': 68.491302, 'lon': 16.678101, 'country': 'Norway', 'alt': 84}"
1730284745,"{'name': 'Everett Paine Field', 'iata': 'PAE', 'icao': 'KPAE', 'lat': 47.9077, 'lon': -122.282799, 'country': 'United States', 'alt': 606}"
1730284745,"{'name': 'Evora Airport', 'iata': 'QPV', 'icao': 'LPEV', 'lat': 38.533463, 'lon': -7.889648, 'country': 'Portugal', 'alt': 806}"
1730284745,"{'name': 'Evreux Fauville Air Base', 'iata': 'EVX', 'icao': 'LFOE', 'lat': 49.028702, 'lon': 1.21986, 'country': 'France', 'alt': 464}"
1730284745,"{'name': 'Ewer Airport', 'iata': 'EWE', 'icao': 'WAKG', 'lat': -5.494589, 'lon': 138.081467, 'country': 'Indonesia', 'alt': 27}"
1730284745,"{'name': 'Exeter Airport', 'iata': 'EXT', 'icao': 'EGTE', 'lat': 50.73444, 'lon': -3.41388, 'country': 'United Kingdom', 'alt': 102}"
1730284745,"{'name': 'Exmouth Airport', 'iata': 'EXM', 'icao': 'YEXM', 'lat': -22.041237, 'lon': 114.102509, 'country': 'Australia', 'alt': 36}"
1730284745,"{'name': 'Ezhou Huahu Airport', 'iata': 'EHU', 'icao': 'ZHEC', 'lat': 30.341, 'lon': 115.039101, 'country': 'China', 'alt': 69}"
1730284745,"{'name': 'Faaite Airport', 'iata': 'FAC', 'icao': 'NTKF', 'lat': -16.686581, 'lon': -145.329544, 'country': 'French Polynesia', 'alt': 12}"
1730284745,"{'name': 'Fagernes Airport', 'iata': 'VDB', 'icao': 'ENFG', 'lat': 61.015549, 'lon': 9.288056, 'country': 'Norway', 'alt': 2697}"
1730284745,"{'name': 'Fair Isle Airport', 'iata': 'FIE', 'icao': 'EGEF', 'lat': 59.534733, 'lon': -1.628413, 'country': 'United Kingdom', 'alt': 236}"
1730284745,"{'name': 'Fairbanks Eielson Air Force Base', 'iata': 'EIL', 'icao': 'PAEI', 'lat': 64.665436, 'lon': -147.101166, 'country': 'United States', 'alt': 541}"
1730284745,"{'name': 'Fairbanks International Airport', 'iata': 'FAI', 'icao': 'PAFA', 'lat': 64.815109, 'lon': -147.856003, 'country': 'United States', 'alt': 439}"
1730284745,"{'name': 'Fairfield Travis Air Force Base', 'iata': 'SUU', 'icao': 'KSUU', 'lat': 38.262661, 'lon': -121.927002, 'country': 'United States', 'alt': 63}"
1730284745,"{'name': 'Fairford Airport', 'iata': 'FFD', 'icao': 'EGVA', 'lat': 51.683544, 'lon': -1.790277, 'country': 'United Kingdom', 'alt': 273}"
1730284745,"{'name': 'Fairhope H. L. Sonny Callahan Airport', 'iata': 'QTQ', 'icao': 'KCQF', 'lat': 30.460573, 'lon': -87.876991, 'country': 'United States', 'alt': 66}"
1730284745,"{'name': 'Fairmont Hot Springs Airport', 'iata': 'YCZ', 'icao': 'CYCZ', 'lat': 50.330738, 'lon': -115.873611, 'country': 'Canada', 'alt': 2661}"
1730284745,"{'name': 'Fairmont Municipal Airport', 'iata': 'FRM', 'icao': 'KFRM', 'lat': 43.643902, 'lon': -94.415604, 'country': 'United States', 'alt': 1162}"
1730284745,"{'name': 'Faisalabad International Airport', 'iata': 'LYP', 'icao': 'OPFA', 'lat': 31.365009, 'lon': 72.994843, 'country': 'Pakistan', 'alt': 591}"
1730284745,"{'name': 'Fakarava Airport', 'iata': 'FAV', 'icao': 'NTGF', 'lat': -16.0541, 'lon': -145.656006, 'country': 'French Polynesia', 'alt': 13}"
1730284745,"{'name': 'Fakfak Torea Airport', 'iata': 'FKQ', 'icao': 'WASF', 'lat': -2.92019, 'lon': 132.266998, 'country': 'Indonesia', 'alt': 462}"
1730284745,"{'name': 'Falfurrias Brooks County Airport', 'iata': 'QTK', 'icao': 'KBKS', 'lat': 27.204731, 'lon': -98.122398, 'country': 'United States', 'alt': 107}"
1730284745,"{'name': 'Falls International Airport', 'iata': 'INL', 'icao': 'KINL', 'lat': 48.565578, 'lon': -93.4021, 'country': 'United States', 'alt': 1185}"
1730284745,"{'name': 'False Pass Airport', 'iata': 'KFP', 'icao': 'PAKF', 'lat': 54.847511, 'lon': -163.406952, 'country': 'United States', 'alt': 17}"
1730284745,"{'name': 'Farah Airport', 'iata': 'FAH', 'icao': 'OAFR', 'lat': 32.365601, 'lon': 62.165138, 'country': 'Afghanistan', 'alt': 2400}"
1730284745,"{'name': 'Fargo Hector International Airport', 'iata': 'FAR', 'icao': 'KFAR', 'lat': 46.92065, 'lon': -96.815697, 'country': 'United States', 'alt': 901}"
1730284745,"{'name': 'Faribault Municipal Airport', 'iata': 'FBL', 'icao': 'KFBL', 'lat': 44.327831, 'lon': -93.31144, 'country': 'United States', 'alt': 1048}"
1730284745,"{'name': 'Farmingdale Republic Airport', 'iata': 'FRG', 'icao': 'KFRG', 'lat': 40.728889, 'lon': -73.41333, 'country': 'United States', 'alt': 82}"
1730284745,"{'name': 'Farmington Four Corners Regional Airport', 'iata': 'FMN', 'icao': 'KFMN', 'lat': 36.741249, 'lon': -108.228996, 'country': 'United States', 'alt': 5506}"
1730284745,"{'name': 'Farmington Regional Airport', 'iata': 'FAM', 'icao': 'KFAM', 'lat': 37.761101, 'lon': -90.428596, 'country': 'United States', 'alt': 946}"
1730284745,"{'name': 'Farnborough Airport', 'iata': 'FAB', 'icao': 'EGLF', 'lat': 51.275829, 'lon': -0.77633, 'country': 'United Kingdom', 'alt': 238}"
1730284745,"{'name': 'Faro Airport', 'iata': 'FAO', 'icao': 'LPFR', 'lat': 37.015244, 'lon': -7.971661, 'country': 'Portugal', 'alt': 18}"
1730284745,"{'name': 'Fayetteville Drake Field Airport', 'iata': 'FYV', 'icao': 'KFYV', 'lat': 36.005089, 'lon': -94.169998, 'country': 'United States', 'alt': 1252}"
1730284745,"{'name': 'Fayetteville Municipal Airport', 'iata': 'FYM', 'icao': 'KFYM', 'lat': 35.0597, 'lon': -86.564003, 'country': 'United States', 'alt': 984}"
1730284745,"{'name': 'Fayetteville Regional Airport', 'iata': 'FAY', 'icao': 'KFAY', 'lat': 34.990002, 'lon': -78.879997, 'country': 'United States', 'alt': 189}"
1730284745,"{'name': 'Feira de Santana Airport', 'iata': 'FEC', 'icao': 'SDIY', 'lat': -12.200615, 'lon': -38.906391, 'country': 'Brazil', 'alt': 771}"
1730284745,"{'name': 'Fera Island Airport', 'iata': 'FRE', 'icao': 'AGGF', 'lat': -8.107224, 'lon': 159.577148, 'country': 'Solomon Islands', 'alt': 17}"
1730284745,"{'name': 'Fergana International Airport', 'iata': 'FEG', 'icao': 'UTFF', 'lat': 40.358761, 'lon': 71.745018, 'country': 'Uzbekistan', 'alt': 1980}"
1730284745,"{'name': 'Fergus Falls Municipal Airport', 'iata': 'FFM', 'icao': 'KFFM', 'lat': 46.285618, 'lon': -96.151375, 'country': 'United States', 'alt': 1186}"
1730284745,"{'name': 'Fernandina Beach Municipal Airport', 'iata': 'QSB', 'icao': 'KFHB', 'lat': 30.61235, 'lon': -81.462143, 'country': 'United States', 'alt': 14}"
1730284745,"{'name': 'Fernando de Noronha Airport', 'iata': 'FEN', 'icao': 'SBFN', 'lat': -3.85492, 'lon': -32.423302, 'country': 'Brazil', 'alt': 193}"
1730284745,"{'name': 'Fertoszentmiklos Meidl Airport', 'iata': 'QHF', 'icao': 'LHFM', 'lat': 47.582748, 'lon': 16.845503, 'country': 'Hungary', 'alt': 438}"
1730284745,"{'name': 'Fes Saiss Airport', 'iata': 'FEZ', 'icao': 'GMFF', 'lat': 33.927261, 'lon': -4.97795, 'country': 'Morocco', 'alt': 1900}"
1730284745,"{'name': 'Figari Sud-Corse Airport', 'iata': 'FSC', 'icao': 'LFKF', 'lat': 41.50222, 'lon': 9.096667, 'country': 'France', 'alt': 87}"
1730284745,"{'name': 'Findlay Airport', 'iata': 'FDY', 'icao': 'KFDY', 'lat': 41.011944, 'lon': -83.66861, 'country': 'United States', 'alt': 813}"
1730284745,"{'name': 'Finke Airport', 'iata': 'FIK', 'icao': 'YFNE', 'lat': -25.594353, 'lon': 134.583359, 'country': 'Australia', 'alt': 909}"
1730284745,"{'name': 'Fitchburg Municipal Airport', 'iata': 'QTI', 'icao': 'KFIT', 'lat': 42.553902, 'lon': -71.759102, 'country': 'United States', 'alt': 330}"
1730284745,"{'name': 'Fitzroy Crossing Airport', 'iata': 'FIZ', 'icao': 'YFTZ', 'lat': -18.1819, 'lon': 125.558998, 'country': 'Australia', 'alt': 368}"
1730284745,"{'name': 'Flagstaff Pulliam Airport', 'iata': 'FLG', 'icao': 'KFLG', 'lat': 35.140308, 'lon': -111.668999, 'country': 'United States', 'alt': 7014}"
1730284745,"{'name': 'Flensburg Schaferhaus Airport', 'iata': 'FLF', 'icao': 'EDXF', 'lat': 54.773335, 'lon': 9.378889, 'country': 'Germany', 'alt': 131}"
1730284745,"{'name': 'Flin Flon Airport', 'iata': 'YFO', 'icao': 'CYFO', 'lat': 54.678051, 'lon': -101.681, 'country': 'Canada', 'alt': 997}"
1730284745,"{'name': 'Flinders Island Airport', 'iata': 'FLS', 'icao': 'YFLI', 'lat': -40.095001, 'lon': 147.996674, 'country': 'Australia', 'alt': 34}"
1730284745,"{'name': 'Flint Bishop International Airport', 'iata': 'FNT', 'icao': 'KFNT', 'lat': 42.96542, 'lon': -83.743599, 'country': 'United States', 'alt': 782}"
1730284745,"{'name': 'Flora Valley Airport', 'iata': 'FVL', 'icao': 'YFLO', 'lat': -18.297848, 'lon': 128.456558, 'country': 'Australia', 'alt': 1221}"
1730284745,"{'name': 'Florence Peretola Airport', 'iata': 'FLR', 'icao': 'LIRQ', 'lat': 43.809952, 'lon': 11.2051, 'country': 'Italy', 'alt': 142}"
1730284745,"{'name': 'Florence Regional Airport', 'iata': 'FLO', 'icao': 'KFLO', 'lat': 34.18536, 'lon': -79.723801, 'country': 'United States', 'alt': 147}"
1730284745,"{'name': 'Florencia Gustavo Artunduaga Paredes Airport', 'iata': 'FLA', 'icao': 'SKFL', 'lat': 1.588989, 'lon': -75.563797, 'country': 'Colombia', 'alt': 803}"
1730284745,"{'name': 'Flores Airport', 'iata': 'FLW', 'icao': 'LPFL', 'lat': 39.455269, 'lon': -31.1313, 'country': 'Portugal', 'alt': 112}"
1730284745,"{'name': 'Flores Mundo Maya International Airport', 'iata': 'FRS', 'icao': 'MGMM', 'lat': 16.913811, 'lon': -89.866302, 'country': 'Guatemala', 'alt': 427}"
1730284745,"{'name': 'Florianopolis Hercilio Luz International Airport', 'iata': 'FLN', 'icao': 'SBFL', 'lat': -27.670401, 'lon': -48.5471, 'country': 'Brazil', 'alt': 20}"
1730284745,"{'name': 'Floro Airport', 'iata': 'FRO', 'icao': 'ENFL', 'lat': 61.583611, 'lon': 5.024722, 'country': 'Norway', 'alt': 37}"
1730284745,"{'name': 'Foggia Gino Lisa Airport', 'iata': 'FOG', 'icao': 'LIBF', 'lat': 41.432911, 'lon': 15.53502, 'country': 'Italy', 'alt': 266}"
1730284745,"{'name': 'Fond Du Lac Airport', 'iata': 'ZFD', 'icao': 'CZFD', 'lat': 59.334209, 'lon': -107.18119, 'country': 'Canada', 'alt': 788}"
1730284745,"{'name': 'Fond du Lac County Airport', 'iata': 'FLD', 'icao': 'KFLD', 'lat': 43.771198, 'lon': -88.488403, 'country': 'United States', 'alt': 808}"
1730284745,"{'name': 'Forbes Airport', 'iata': 'FRB', 'icao': 'YFBS', 'lat': -33.362652, 'lon': 147.927444, 'country': 'Australia', 'alt': 761}"
1730284745,"{'name': 'Forde Airport', 'iata': 'FDE', 'icao': 'ENBL', 'lat': 61.391109, 'lon': 5.756944, 'country': 'Norway', 'alt': 1046}"
1730284745,"{'name': 'Forli Airport', 'iata': 'FRL', 'icao': 'LIPK', 'lat': 44.194752, 'lon': 12.07009, 'country': 'Italy', 'alt': 97}"
1730284745,"{'name': 'Formosa International Airport', 'iata': 'FMA', 'icao': 'SARF', 'lat': -26.2127, 'lon': -58.2281, 'country': 'Argentina', 'alt': 194}"
1730284745,"{'name': 'Forrest Airport', 'iata': 'FOS', 'icao': 'YFRT', 'lat': -30.836773, 'lon': 128.112946, 'country': 'Australia', 'alt': 511}"
1730284745,"{'name': 'Forrestania Airport', 'iata': 'QBF', 'icao': 'YFTA', 'lat': -32.582005, 'lon': 119.707741, 'country': 'Australia', 'alt': 1362}"
1730284745,"{'name': 'Fort Albany Airport', 'iata': 'YFA', 'icao': 'CYFA', 'lat': 52.241669, 'lon': -81.591667, 'country': 'Canada', 'alt': 53}"
1730284745,"{'name': 'Fort Chipewyan Airport', 'iata': 'YPY', 'icao': 'CYPY', 'lat': 58.76722, 'lon': -111.116997, 'country': 'Canada', 'alt': 761}"
1730284745,"{'name': 'Fort Collins Northern Colorado Regional Airport', 'iata': 'FNL', 'icao': 'KFNL', 'lat': 40.45182, 'lon': -105.011002, 'country': 'United States', 'alt': 5016}"
1730284745,"{'name': 'Fort Dodge Regional Airport', 'iata': 'FOD', 'icao': 'KFOD', 'lat': 42.551189, 'lon': -94.191803, 'country': 'United States', 'alt': 1156}"
1730284745,"{'name': 'Fort Eustis Felker Army Airfield', 'iata': 'FAF', 'icao': 'KFAF', 'lat': 37.132519, 'lon': -76.608826, 'country': 'United States', 'alt': 12}"
1730284745,"{'name': 'Fort Frances Municipal Airport', 'iata': 'YAG', 'icao': 'CYAG', 'lat': 48.650002, 'lon': -93.43, 'country': 'Canada', 'alt': 1125}"
1730284745,"{'name': 'Fort Good Hope Airport', 'iata': 'YGH', 'icao': 'CYGH', 'lat': 66.240555, 'lon': -128.645752, 'country': 'Canada', 'alt': 230}"
1730284745,"{'name': 'Fort Hope Airport', 'iata': 'YFH', 'icao': 'CYFH', 'lat': 51.559345, 'lon': -87.897957, 'country': 'Canada', 'alt': 905}"
1730284745,"{'name': 'Fort Huachuca Sierra Vista Municipal Airport', 'iata': 'FHU', 'icao': 'KFHU', 'lat': 31.58847, 'lon': -110.344002, 'country': 'United States', 'alt': 4719}"
1730284745,"{'name': 'Fort Johnson Maks Army Airfield', 'iata': 'POE', 'icao': 'KPOE', 'lat': 31.044645, 'lon': -93.191597, 'country': 'United States', 'alt': 310}"
1730284745,"{'name': 'Fort Lauderdale Executive Airport', 'iata': 'FXE', 'icao': 'KFXE', 'lat': 26.197269, 'lon': -80.1707, 'country': 'United States', 'alt': 13}"
1730284745,"{'name': 'Fort Lauderdale Hollywood International Airport', 'iata': 'FLL', 'icao': 'KFLL', 'lat': 26.07258, 'lon': -80.152702, 'country': 'United States', 'alt': 9}"
1730284745,"{'name': 'Fort Leavenworth Sherman Army Airfield', 'iata': 'FLV', 'icao': 'KFLV', 'lat': 39.368362, 'lon': -94.914658, 'country': 'United States', 'alt': 770}"
1730284745,"{'name': 'Fort Liberty Pope Field', 'iata': 'POB', 'icao': 'KPOB', 'lat': 35.170834, 'lon': -79.014442, 'country': 'United States', 'alt': 201}"
1730284745,"{'name': 'Fort Liberty Simmons Army Airfield', 'iata': 'FBG', 'icao': 'KFBG', 'lat': 35.131908, 'lon': -78.936401, 'country': 'United States', 'alt': 238}"
1730284745,"{'name': 'Fort MacKay Albian Aerodrome', 'iata': 'JHL', 'icao': 'CAL4', 'lat': 57.2239, 'lon': -111.418999, 'country': 'Canada', 'alt': 1048}"
1730284745,"{'name': 'Fort MacKay Firebag Aerodrome', 'iata': 'YFI', 'icao': 'CYFI', 'lat': 57.275833, 'lon': -110.976669, 'country': 'Canada', 'alt': 1762}"
1730284745,"{'name': 'Fort MacKay Horizon Airport', 'iata': 'HZP', 'icao': 'CYNR', 'lat': 57.381668, 'lon': -111.701111, 'country': 'Canada', 'alt': 916}"
1730284745,"{'name': 'Fort McMurray Airport', 'iata': 'YMM', 'icao': 'CYMM', 'lat': 56.653332, 'lon': -111.221001, 'country': 'Canada', 'alt': 1211}"
1730284745,"{'name': 'Fort Meade Tipton Airport', 'iata': 'FME', 'icao': 'KFME', 'lat': 39.088482, 'lon': -76.753716, 'country': 'United States', 'alt': 151}"
1730284745,"{'name': 'Fort Myers Page Field Airport', 'iata': 'FMY', 'icao': 'KFMY', 'lat': 26.586611, 'lon': -81.863197, 'country': 'United States', 'alt': 17}"
1730284745,"{'name': 'Fort Nelson Airport', 'iata': 'YYE', 'icao': 'CYYE', 'lat': 58.83638, 'lon': -122.596001, 'country': 'Canada', 'alt': 1253}"
1730284745,"{'name': 'Fort Pierce Treasure Coast International Airport', 'iata': 'FPR', 'icao': 'KFPR', 'lat': 27.4951, 'lon': -80.368301, 'country': 'United States', 'alt': 24}"
1730284745,"{'name': 'Fort Severn Airport', 'iata': 'YER', 'icao': 'CYER', 'lat': 56.0177, 'lon': -87.677505, 'country': 'Canada', 'alt': 43}"
1730284745,"{'name': 'Fort Simpson Airport', 'iata': 'YFS', 'icao': 'CYFS', 'lat': 61.760151, 'lon': -121.236511, 'country': 'Canada', 'alt': 561}"
1730284745,"{'name': 'Fort Smith Airport', 'iata': 'YSM', 'icao': 'CYSM', 'lat': 60.020271, 'lon': -111.960999, 'country': 'Canada', 'alt': 671}"
1730284745,"{'name': 'Fort Smith Regional Airport', 'iata': 'FSM', 'icao': 'KFSM', 'lat': 35.336578, 'lon': -94.367401, 'country': 'United States', 'alt': 469}"
1730284745,"{'name': 'Fort St. John Airport', 'iata': 'YXJ', 'icao': 'CYXJ', 'lat': 56.238049, 'lon': -120.739998, 'country': 'Canada', 'alt': 2280}"
1730284745,"{'name': 'Fort Stewart Midcoast Regional Airport', 'iata': 'LIY', 'icao': 'KLHW', 'lat': 31.891504, 'lon': -81.560844, 'country': 'United States', 'alt': 41}"
1730284745,"{'name': 'Fort Stockton Pecos County Airport', 'iata': 'FST', 'icao': 'KFST', 'lat': 30.914251, 'lon': -102.917603, 'country': 'United States', 'alt': 2997}"
1730284745,"{'name': 'Fort Wayne International Airport', 'iata': 'FWA', 'icao': 'KFWA', 'lat': 40.97847, 'lon': -85.195099, 'country': 'United States', 'alt': 814}"
1730284745,"{'name': 'Fort Worth Alliance Airport', 'iata': 'AFW', 'icao': 'KAFW', 'lat': 32.98, 'lon': -97.309998, 'country': 'United States', 'alt': 722}"
1730284745,"{'name': 'Fort Worth Meacham International Airport', 'iata': 'FTW', 'icao': 'KFTW', 'lat': 32.819771, 'lon': -97.362396, 'country': 'United States', 'alt': 710}"
1730284745,"{'name': 'Fort Yukon Airport', 'iata': 'FYU', 'icao': 'PFYU', 'lat': 66.571487, 'lon': -145.25, 'country': 'United States', 'alt': 447}"
1730284745,"{'name': 'Fortaleza Pinto Martins International Airport', 'iata': 'FOR', 'icao': 'SBFZ', 'lat': -3.77628, 'lon': -38.532501, 'country': 'Brazil', 'alt': 82}"
1730284745,"{'name': 'Fortnum Airport', 'iata': 'QBO', 'icao': 'YFOR', 'lat': -25.338013, 'lon': 118.377426, 'country': 'Australia', 'alt': 1666}"
1730284745,"{'name': 'Fortuna Rohnerville Airport', 'iata': 'QTO', 'icao': 'KFOT', 'lat': 40.553776, 'lon': -124.132385, 'country': 'United States', 'alt': 365}"
1730284745,"{'name': 'Foshan Shadi Airport', 'iata': 'FUO', 'icao': 'ZGFS', 'lat': 23.0825, 'lon': 113.070831, 'country': 'China', 'alt': 13}"
1730284745,"{'name': 'Foula Airport', 'iata': 'FOA', 'icao': 'EGFO', 'lat': 60.122524, 'lon': -2.053583, 'country': 'United Kingdom', 'alt': 91}"
1730284745,"{'name': 'Foz do Iguacu International Airport', 'iata': 'IGU', 'icao': 'SBFI', 'lat': -25.5961, 'lon': -54.487202, 'country': 'Brazil', 'alt': 787}"
1730284745,"{'name': 'Franca Airport', 'iata': 'FRC', 'icao': 'SIMK', 'lat': -20.592199, 'lon': -47.3829, 'country': 'Brazil', 'alt': 3292}"
1730284745,"{'name': 'Franceville Mvengue Airport', 'iata': 'MVB', 'icao': 'FOON', 'lat': -1.656, 'lon': 13.437837, 'country': 'Gabon', 'alt': 1441}"
1730284745,"{'name': 'Francisco Beltrao Airport', 'iata': 'FBE', 'icao': 'SSFB', 'lat': -26.059431, 'lon': -53.063942, 'country': 'Brazil', 'alt': 2119}"
1730284745,"{'name': 'Francistown Phillip Gaonwe Matante International Airport', 'iata': 'FRW', 'icao': 'FBFT', 'lat': -21.1591, 'lon': 27.468296, 'country': 'Botswana', 'alt': 3292}"
1730284745,"{'name': 'Frankfort Capital City Airport', 'iata': 'FFT', 'icao': 'KFFT', 'lat': 38.18, 'lon': -84.900002, 'country': 'United States', 'alt': 812}"
1730284745,"{'name': 'Frankfurt Airport', 'iata': 'FRA', 'icao': 'EDDF', 'lat': 50.037796, 'lon': 8.555783, 'country': 'Germany', 'alt': 364}"
1730284745,"{'name': 'Frankfurt Egelsbach Airport', 'iata': 'QEF', 'icao': 'EDFE', 'lat': 49.961109, 'lon': 8.643611, 'country': 'Germany', 'alt': 385}"
1730284745,"{'name': 'Frankfurt Hahn Airport', 'iata': 'HHN', 'icao': 'EDFH', 'lat': 49.948669, 'lon': 7.263892, 'country': 'Germany', 'alt': 1649}"
1730284745,"{'name': 'Franklin Venango Regional Airport', 'iata': 'FKL', 'icao': 'KFKL', 'lat': 41.379166, 'lon': -79.859718, 'country': 'United States', 'alt': 1540}"
1730284745,"{'name': 'Franz Josef Airport', 'iata': 'WHO', 'icao': 'NZFJ', 'lat': -43.363503, 'lon': 170.134781, 'country': 'New Zealand', 'alt': 305}"
1730284745,"{'name': 'Frederick Municipal Airport', 'iata': 'FDK', 'icao': 'KFDK', 'lat': 39.417599, 'lon': -77.374298, 'country': 'United States', 'alt': 303}"
1730284745,"{'name': 'Frederick Regional Airport', 'iata': 'FDR', 'icao': 'KFDR', 'lat': 34.352001, 'lon': -98.983902, 'country': 'United States', 'alt': 1258}"
1730284745,"{'name': 'Fredericton International Airport', 'iata': 'YFC', 'icao': 'CYFC', 'lat': 45.868881, 'lon': -66.537201, 'country': 'Canada', 'alt': 68}"
1730284745,"{'name': 'Freeport Grand Bahama International Airport', 'iata': 'FPO', 'icao': 'MYGF', 'lat': 26.55868, 'lon': -78.695503, 'country': 'Bahamas', 'alt': 7}"
1730284745,"{'name': 'Freetown Lungi International Airport', 'iata': 'FNA', 'icao': 'GFLL', 'lat': 8.616444, 'lon': -13.1954, 'country': 'Sierra Leone', 'alt': 84}"
1730284745,"{'name': 'Freiburg Airport', 'iata': 'QCF', 'icao': 'EDTF', 'lat': 48.022652, 'lon': 7.832583, 'country': 'Germany', 'alt': 797}"
1730284745,"{'name': 'Fremont Municipal Airport', 'iata': 'FET', 'icao': 'KFET', 'lat': 41.4491, 'lon': -96.520203, 'country': 'United States', 'alt': 1204}"
1730284745,"{'name': 'French Lick Municipal Airport', 'iata': 'FRH', 'icao': 'KFRH', 'lat': 38.506214, 'lon': -86.636841, 'country': 'United States', 'alt': 796}"
1730284745,"{'name': 'Fresno Chandler Executive Airport', 'iata': 'FCH', 'icao': 'KFCH', 'lat': 36.73214, 'lon': -119.820335, 'country': 'United States', 'alt': 277}"
1730284745,"{'name': 'Fresno Yosemite International Airport', 'iata': 'FAT', 'icao': 'KFAT', 'lat': 36.776192, 'lon': -119.718002, 'country': 'United States', 'alt': 336}"
1730284745,"{'name': 'Fribourg Ecuvillens Airport', 'iata': 'QYE', 'icao': 'LSGE', 'lat': 46.755207, 'lon': 7.075892, 'country': 'Switzerland', 'alt': 2993}"
1730284745,"{'name': 'Friday Harbor Airport', 'iata': 'FRD', 'icao': 'KFHR', 'lat': 48.524807, 'lon': -123.026497, 'country': 'United States', 'alt': 113}"
1730284745,"{'name': 'Friedrichshafen Airport', 'iata': 'FDH', 'icao': 'EDNY', 'lat': 47.67131, 'lon': 9.511486, 'country': 'Germany', 'alt': 1367}"
1730284745,"{'name': 'Fryeburg Eastern Slopes Regional Airport', 'iata': 'FRY', 'icao': 'KIZG', 'lat': 43.9911, 'lon': -70.947899, 'country': 'United States', 'alt': 454}"
1730284745,"{'name': 'Fuerteventura Airport', 'iata': 'FUE', 'icao': 'GCFV', 'lat': 28.452709, 'lon': -13.8637, 'country': 'Spain', 'alt': 83}"
1730284745,"{'name': 'Fujairah International Airport', 'iata': 'FJR', 'icao': 'OMFJ', 'lat': 25.112221, 'lon': 56.323959, 'country': 'United Arab Emirates', 'alt': 152}"
1730284745,"{'name': 'Fukue Airport', 'iata': 'FUJ', 'icao': 'RJFE', 'lat': 32.66626, 'lon': 128.832794, 'country': 'Japan', 'alt': 273}"
1730284745,"{'name': 'Fukui Airport', 'iata': 'FKJ', 'icao': 'RJNF', 'lat': 36.142799, 'lon': 136.223999, 'country': 'Japan', 'alt': 19}"
1730284745,"{'name': 'Fukuoka Airport', 'iata': 'FUK', 'icao': 'RJFF', 'lat': 33.585941, 'lon': 130.450607, 'country': 'Japan', 'alt': 32}"
1730284745,"{'name': 'Fukushima Airport', 'iata': 'FKS', 'icao': 'RJSF', 'lat': 37.227428, 'lon': 140.430603, 'country': 'Japan', 'alt': 1221}"
1730284745,"{'name': 'Fullerton Municipal Airport', 'iata': 'FUL', 'icao': 'KFUL', 'lat': 33.872013, 'lon': -117.979782, 'country': 'United States', 'alt': 96}"
1730284745,"{'name': 'Funadhoo Airport', 'iata': 'FND', 'icao': 'VRCF', 'lat': 6.161111, 'lon': 73.287224, 'country': 'Maldives', 'alt': 6}"
1730284745,"{'name': 'Funafuti International Airport', 'iata': 'FUN', 'icao': 'NGFU', 'lat': -8.525, 'lon': 179.196304, 'country': 'Tuvalu', 'alt': 9}"
1730284745,"{'name': 'Funchal Cristiano Ronaldo Airport', 'iata': 'FNC', 'icao': 'LPMA', 'lat': 32.69788, 'lon': -16.774401, 'country': 'Portugal', 'alt': 192}"
1730284745,"{'name': 'Futuna Airport', 'iata': 'FTA', 'icao': 'NVVF', 'lat': -19.5163, 'lon': 170.231903, 'country': 'Vanuatu', 'alt': '-1'}"
1730284745,"{'name': 'Futuna Island Pointe Vele Airport', 'iata': 'FUT', 'icao': 'NLWF', 'lat': -14.3113, 'lon': -178.065994, 'country': 'Wallis And Futuna', 'alt': 20}"
1730284745,"{'name': 'Fuvahmulah Airport', 'iata': 'FVM', 'icao': 'VRMR', 'lat': -0.309444, 'lon': 73.432503, 'country': 'Maldives', 'alt': 6}"
1730284745,"{'name': 'Fuyang Xiguan Airport', 'iata': 'FUG', 'icao': 'ZSFY', 'lat': 32.882156, 'lon': 115.734367, 'country': 'China', 'alt': 104}"
1730284745,"{'name': 'Fuyuan Dongji Airport', 'iata': 'FYJ', 'icao': 'ZYFY', 'lat': 48.199493, 'lon': 134.36644, 'country': 'China', 'alt': 190}"
1730284745,"{'name': 'Fuyun Koktokay Airport', 'iata': 'FYN', 'icao': 'ZWFY', 'lat': 46.804222, 'lon': 89.511978, 'country': 'China', 'alt': 3059}"
1730284745,"{'name': 'Fuzhou Changle International Airport', 'iata': 'FOC', 'icao': 'ZSFZ', 'lat': 25.934599, 'lon': 119.663368, 'country': 'China', 'alt': 29}"
1730284745,"{'name': 'Fuzuli International Airport', 'iata': 'FZL', 'icao': 'UBBF', 'lat': 39.594398, 'lon': 47.196602, 'country': 'Azerbaijan', 'alt': 1204}"
1730284745,"{'name': 'Gabes Matmata International Airport', 'iata': 'GAE', 'icao': 'DTTG', 'lat': 33.734165, 'lon': 9.921366, 'country': 'Tunisia', 'alt': 26}"
1730284745,"{'name': 'Gaborone Sir Seretse Khama International Airport', 'iata': 'GBE', 'icao': 'FBSK', 'lat': -24.555201, 'lon': 25.9182, 'country': 'Botswana', 'alt': 3299}"
1730284745,"{'name': 'Gachsaran Airport', 'iata': 'GCH', 'icao': 'OIAH', 'lat': 30.336399, 'lon': 50.831657, 'country': 'Iran', 'alt': 2396}"
1730284745,"{'name': 'Gadsden Northeast Alabama Regional Airport', 'iata': 'GAD', 'icao': 'KGAD', 'lat': 33.97361, 'lon': -86.087219, 'country': 'United States', 'alt': 569}"
1730284745,"{'name': 'Gainesville Lee Gilmer Memorial Airport', 'iata': 'GVL', 'icao': 'KGVL', 'lat': 34.273369, 'lon': -83.831322, 'country': 'United States', 'alt': 1269}"
1730284745,"{'name': 'Gainesville Municipal Airport', 'iata': 'GLE', 'icao': 'KGLE', 'lat': 33.651402, 'lon': -97.196999, 'country': 'United States', 'alt': 845}"
1730284745,"{'name': 'Gainesville Regional Airport', 'iata': 'GNV', 'icao': 'KGNV', 'lat': 29.69005, 'lon': -82.271698, 'country': 'United States', 'alt': 151}"
1730284745,"{'name': 'Gaithersburg Montgomery County Airpark', 'iata': 'GAI', 'icao': 'KGAI', 'lat': 39.168331, 'lon': -77.166, 'country': 'United States', 'alt': 538}"
1730284745,"{'name': 'Galcaio Airport', 'iata': 'GLK', 'icao': 'HCMR', 'lat': 6.780833, 'lon': 47.45472, 'country': 'Somalia', 'alt': 975}"
1730284745,"{'name': 'Galena Airport', 'iata': 'GAL', 'icao': 'PAGA', 'lat': 64.73616, 'lon': -156.936996, 'country': 'United States', 'alt': 153}"
