version,rows
1730284745,"{'name': 'Manchester Boston Regional Airport', 'iata': 'MHT', 'icao': 'KMHT', 'lat': 42.9328, 'lon': -71.435699, 'country': 'United States', 'alt': 266}"
1730284745,"{'name': 'Mandalay Chanmyathazi Airport', 'iata': 'VBC', 'icao': 'VYCZ', 'lat': 21.940538, 'lon': 96.089584, 'country': 'Myanmar (Burma)', 'alt': 77}"
1730284745,"{'name': 'Mandalay International Airport', 'iata': 'MDL', 'icao': 'VYMD', 'lat': 21.70215, 'lon': 95.977921, 'country': 'Myanmar (Burma)', 'alt': 300}"
1730284745,"{'name': 'Mangalore International Airport', 'iata': 'IXE', 'icao': 'VOML', 'lat': 12.95507, 'lon': 74.887611, 'country': 'India', 'alt': 313}"
1730284745,"{'name': 'Mangrove Cay Clarence A. Bain Airport', 'iata': 'MAY', 'icao': 'MYAB', 'lat': 24.287701, 'lon': -77.684601, 'country': 'Bahamas', 'alt': 19}"
1730284745,"{'name': 'Mangshi Airport', 'iata': 'LUM', 'icao': 'ZPLX', 'lat': 24.405279, 'lon': 98.531898, 'country': 'China', 'alt': 2869}"
1730284745,"{'name': 'Manhattan Regional Airport', 'iata': 'MHK', 'icao': 'KMHK', 'lat': 39.140968, 'lon': -96.670799, 'country': 'United States', 'alt': 1066}"
1730284745,"{'name': 'Manhuacu Airport', 'iata': 'JMA', 'icao': 'SNJM', 'lat': -20.259501, 'lon': -42.183952, 'country': 'Brazil', 'alt': 2693}"
1730284745,"{'name': 'Manicore Airport', 'iata': 'MNX', 'icao': 'SBMY', 'lat': -5.81138, 'lon': -61.278301, 'country': 'Brazil', 'alt': 174}"
1730284745,"{'name': 'Manihi Airport', 'iata': 'XMH', 'icao': 'NTGI', 'lat': -14.4375, 'lon': -146.070007, 'country': 'French Polynesia', 'alt': 14}"
1730284745,"{'name': 'Maniitsoq Airport', 'iata': 'JSU', 'icao': 'BGMQ', 'lat': 65.41246, 'lon': -52.9394, 'country': 'Greenland', 'alt': 91}"
1730284745,"{'name': 'Manila Municipal Airport', 'iata': 'MXA', 'icao': 'KMXA', 'lat': 35.894444, 'lon': -90.154442, 'country': 'United States', 'alt': 242}"
1730284745,"{'name': 'Manila Ninoy Aquino International Airport', 'iata': 'MNL', 'icao': 'RPLL', 'lat': 14.50864, 'lon': 121.019501, 'country': 'Philippines', 'alt': 75}"
1730284745,"{'name': 'Maningrida Airport', 'iata': 'MNG', 'icao': 'YMGD', 'lat': -12.05492, 'lon': 134.232269, 'country': 'Australia', 'alt': 123}"
1730284745,"{'name': 'Manistee County Blacker Airport', 'iata': 'MBL', 'icao': 'KMBL', 'lat': 44.272598, 'lon': -86.242218, 'country': 'United States', 'alt': 616}"
1730284745,"{'name': 'Manitowoc County Airport', 'iata': 'MTW', 'icao': 'KMTW', 'lat': 44.129723, 'lon': -87.68222, 'country': 'United States', 'alt': 651}"
1730284745,"{'name': 'Manizales La Nubia Airport', 'iata': 'MZL', 'icao': 'SKMZ', 'lat': 5.029992, 'lon': -75.465103, 'country': 'Colombia', 'alt': 6871}"
1730284745,"{'name': 'Manjimup Airport', 'iata': 'MJP', 'icao': 'YMJM', 'lat': -34.265301, 'lon': 116.139999, 'country': 'Australia', 'alt': 940}"
1730284745,"{'name': 'Mankato Regional Airport', 'iata': 'MKT', 'icao': 'KMKT', 'lat': 44.22361, 'lon': -93.918335, 'country': 'United States', 'alt': 1020}"
1730284745,"{'name': 'Manley Hot Springs Airport', 'iata': 'MLY', 'icao': 'PAML', 'lat': 64.988113, 'lon': -150.647461, 'country': 'United States', 'alt': 259}"
1730284745,"{'name': 'Mannheim City Airport', 'iata': 'MHG', 'icao': 'EDFM', 'lat': 49.472698, 'lon': 8.514264, 'country': 'Germany', 'alt': 309}"
1730284745,"{'name': 'Manokotak Airport', 'iata': 'KMO', 'icao': 'PAMB', 'lat': 58.9902, 'lon': -159.050003, 'country': 'United States', 'alt': 100}"
1730284745,"{'name': 'Manokwari Rendani Airport', 'iata': 'MKW', 'icao': 'WAUU', 'lat': -0.89183, 'lon': 134.049103, 'country': 'Indonesia', 'alt': 23}"
1730284745,"{'name': 'Mansa Airport', 'iata': 'MNS', 'icao': 'FLMA', 'lat': -11.138169, 'lon': 28.874895, 'country': 'Zambia', 'alt': 4115}"
1730284745,"{'name': 'Mansfield Lahm Regional Airport', 'iata': 'MFD', 'icao': 'KMFD', 'lat': 40.82, 'lon': -82.512779, 'country': 'United States', 'alt': 1297}"
1730284745,"{'name': 'Manta Eloy Alfaro International Airport', 'iata': 'MEC', 'icao': 'SEMT', 'lat': -0.94607, 'lon': -80.678802, 'country': 'Ecuador', 'alt': 48}"
1730284745,"{'name': 'Manteo Dare County Regional Airport', 'iata': 'MEO', 'icao': 'KMQI', 'lat': 35.919167, 'lon': -75.695274, 'country': 'United States', 'alt': 14}"
1730284745,"{'name': 'Manzanillo Playa de Oro International Airport', 'iata': 'ZLO', 'icao': 'MMZO', 'lat': 19.14477, 'lon': -104.557999, 'country': 'Mexico', 'alt': 30}"
1730284745,"{'name': 'Manzanillo Sierra Maestra Airport', 'iata': 'MZO', 'icao': 'MUMZ', 'lat': 20.28817, 'lon': -77.089302, 'country': 'Cuba', 'alt': 112}"
1730284745,"{'name': 'Manzhouli Xijiao Airport', 'iata': 'NZH', 'icao': 'ZBMZ', 'lat': 49.560001, 'lon': 117.32, 'country': 'China', 'alt': '-1'}"
1730284745,"{'name': 'Manzini King Mswati III International Airport', 'iata': 'SHO', 'icao': 'FDSK', 'lat': -26.356667, 'lon': 31.716944, 'country': 'Eswatini', 'alt': '-1'}"
1730284745,"{'name': 'Manzini Matsapha Airport', 'iata': 'MTS', 'icao': 'FDMS', 'lat': -26.528999, 'lon': 31.30751, 'country': 'Eswatini', 'alt': 2075}"
1730284745,"{'name': 'Maputo International Airport', 'iata': 'MPM', 'icao': 'FQMA', 'lat': -25.920799, 'lon': 32.572601, 'country': 'Mozambique', 'alt': 145}"
1730284745,"{'name': 'Mar del Plata Astor Piazzolla International Airport', 'iata': 'MDQ', 'icao': 'SAZM', 'lat': -37.934101, 'lon': -57.573299, 'country': 'Argentina', 'alt': 71}"
1730284745,"{'name': 'Maraba Airport', 'iata': 'MAB', 'icao': 'SBMA', 'lat': -5.36858, 'lon': -49.138, 'country': 'Brazil', 'alt': 357}"
1730284745,"{'name': 'Maracaibo La Chinita International Airport', 'iata': 'MAR', 'icao': 'SVMC', 'lat': 10.5582, 'lon': -71.727798, 'country': 'Venezuela', 'alt': 235}"
1730284745,"{'name': 'Maradi Airport', 'iata': 'MFQ', 'icao': 'DRRM', 'lat': 13.5025, 'lon': 7.12675, 'country': 'Niger', 'alt': 1240}"
1730284745,"{'name': 'Maragheh Sahand Airport', 'iata': 'ACP', 'icao': 'OITM', 'lat': 37.348, 'lon': 46.127899, 'country': 'Iran', 'alt': 4396}"
1730284745,"{'name': 'Marakei Airport', 'iata': 'MZK', 'icao': 'NGMK', 'lat': 2.058707, 'lon': 173.271896, 'country': 'Kiribati', 'alt': 29}"
1730284745,"{'name': 'Marambio Airport', 'iata': 'QAB', 'icao': 'SAWB', 'lat': -64.238701, 'lon': -56.629845, 'country': 'Antarctica', 'alt': 760}"
1730284745,"{'name': 'Marana Pinal Airport', 'iata': 'MZJ', 'icao': 'KMZJ', 'lat': 32.509842, 'lon': -111.325302, 'country': 'United States', 'alt': 1882}"
1730284745,"{'name': 'Marathon Florida Keys Airport', 'iata': 'MTH', 'icao': 'KMTH', 'lat': 24.726206, 'lon': -81.050934, 'country': 'United States', 'alt': 4}"
1730284745,"{'name': 'Marble Bar Airport', 'iata': 'MBB', 'icao': 'YMBL', 'lat': -21.162701, 'lon': 119.833817, 'country': 'Australia', 'alt': 647}"
1730284745,"{'name': 'Marco Island Airport', 'iata': 'MRK', 'icao': 'KMKY', 'lat': 25.999664, 'lon': -81.674171, 'country': 'United States', 'alt': 1}"
1730284745,"{'name': 'Mardin Airport', 'iata': 'MQM', 'icao': 'LTCR', 'lat': 37.223331, 'lon': 40.63166, 'country': 'Turkey', 'alt': 1729}"
1730284745,"{'name': 'Mare Airport', 'iata': 'MEE', 'icao': 'NWWR', 'lat': -21.4816, 'lon': 168.037506, 'country': 'New Caledonia', 'alt': 141}"
1730284745,"{'name': 'Mareeba Airport', 'iata': 'MRG', 'icao': 'YMBA', 'lat': -17.069201, 'lon': 145.419006, 'country': 'Australia', 'alt': 1560}"
1730284745,"{'name': 'Marfa Municipal Airport', 'iata': 'MRF', 'icao': 'KMRF', 'lat': 30.371111, 'lon': -104.017502, 'country': 'United States', 'alt': 4849}"
1730284745,"{'name': 'Margaret River Airport', 'iata': 'MQZ', 'icao': 'YMGT', 'lat': -33.930599, 'lon': 115.099998, 'country': 'Australia', 'alt': 374}"
1730284745,"{'name': 'Margate Airport', 'iata': 'MGH', 'icao': 'FAMG', 'lat': -30.857401, 'lon': 30.34301, 'country': 'South Africa', 'alt': 495}"
1730284745,"{'name': 'Maribor Airport', 'iata': 'MBX', 'icao': 'LJMB', 'lat': 46.479858, 'lon': 15.68613, 'country': 'Slovenia', 'alt': 876}"
1730284745,"{'name': 'Marica Airport', 'iata': 'JMR', 'icao': 'SBMI', 'lat': -22.91847, 'lon': -42.828739, 'country': 'Brazil', 'alt': 5}"
1730284745,"{'name': 'Mariehamn Airport', 'iata': 'MHQ', 'icao': 'EFMA', 'lat': 60.1222, 'lon': 19.898149, 'country': 'Finland', 'alt': 17}"
1730284745,"{'name': 'Marilia Airport', 'iata': 'MII', 'icao': 'SBML', 'lat': -22.197001, 'lon': -49.93, 'country': 'Brazil', 'alt': 2122}"
1730284745,"{'name': 'Marina Municipal Airport', 'iata': 'OAR', 'icao': 'KOAR', 'lat': 36.6819, 'lon': -121.762001, 'country': 'United States', 'alt': 137}"
1730284745,"{'name': 'Maringa Regional Airport', 'iata': 'MGF', 'icao': 'SBMG', 'lat': -23.476299, 'lon': -52.016399, 'country': 'Brazil', 'alt': 1788}"
1730284745,"{'name': 'Marion Municipal Airport', 'iata': 'MZZ', 'icao': 'KMZZ', 'lat': 40.489899, 'lon': -85.679703, 'country': 'United States', 'alt': 859}"
1730284745,"{'name': 'Marion Williamson County Regional Airport', 'iata': 'MWA', 'icao': 'KMWA', 'lat': 37.751945, 'lon': -89.016388, 'country': 'United States', 'alt': 472}"
1730284745,"{'name': 'Marla Airport', 'iata': 'MRP', 'icao': 'YALA', 'lat': -27.334501, 'lon': 133.627701, 'country': 'Australia', 'alt': 1070}"
1730284745,"{'name': 'Marmul Airport', 'iata': 'OMM', 'icao': 'OOMX', 'lat': 18.138243, 'lon': 55.180038, 'country': 'Oman', 'alt': 902}"
1730284745,"{'name': 'Maroantsetra Airport', 'iata': 'WMN', 'icao': 'FMNR', 'lat': -15.4366, 'lon': 49.688332, 'country': 'Madagascar', 'alt': 13}"
1730284745,"{'name': 'Maroua Salak Airport', 'iata': 'MVR', 'icao': 'FKKL', 'lat': 10.45139, 'lon': 14.25736, 'country': 'Cameroon', 'alt': 1390}"
1730284745,"{'name': 'Marquette Sawyer International Airport', 'iata': 'MQT', 'icao': 'KSAW', 'lat': 46.35363, 'lon': -87.395302, 'country': 'United States', 'alt': 1221}"
1730284745,"{'name': 'Marrakesh Menara Airport', 'iata': 'RAK', 'icao': 'GMMX', 'lat': 31.60688, 'lon': -8.0363, 'country': 'Morocco', 'alt': 1545}"
1730284745,"{'name': 'Marree Airport', 'iata': 'RRE', 'icao': 'YMRE', 'lat': -29.663151, 'lon': 138.066025, 'country': 'Australia', 'alt': 169}"
1730284745,"{'name': 'Marsa Alam International Airport', 'iata': 'RMF', 'icao': 'HEMA', 'lat': 25.55711, 'lon': 34.58371, 'country': 'Egypt', 'alt': 251}"
1730284745,"{'name': 'Marsa Matruh International Airport', 'iata': 'MUH', 'icao': 'HEMM', 'lat': 31.32535, 'lon': 27.22168, 'country': 'Egypt', 'alt': 94}"
1730284745,"{'name': 'Marseille Provence Airport', 'iata': 'MRS', 'icao': 'LFML', 'lat': 43.436661, 'lon': 5.215, 'country': 'France', 'alt': 74}"
1730284745,"{'name': 'Marsh Harbour Airport', 'iata': 'MHH', 'icao': 'MYAM', 'lat': 26.5114, 'lon': -77.083397, 'country': 'Bahamas', 'alt': 6}"
1730284745,"{'name': 'Marshall Don Hunter Sr. Airport', 'iata': 'MLL', 'icao': 'PADM', 'lat': 61.864185, 'lon': -162.026169, 'country': 'United States', 'alt': 103}"
1730284745,"{'name': 'Marshall Harrison County Airport', 'iata': 'ASL', 'icao': 'KASL', 'lat': 32.5205, 'lon': -94.3078, 'country': 'United States', 'alt': 357}"
1730284745,"{'name': 'Marshall Southwest Minnesota Regional Airport', 'iata': 'MML', 'icao': 'KMML', 'lat': 44.447224, 'lon': -95.817497, 'country': 'United States', 'alt': 1180}"
1730284745,"{'name': 'Marshfield Municipal Airport', 'iata': 'MFI', 'icao': 'KMFI', 'lat': 44.63459, 'lon': -90.188683, 'country': 'United States', 'alt': 1255}"
1730284745,"{'name': ""Martha's Vineyard Airport"", 'iata': 'MVY', 'icao': 'KMVY', 'lat': 41.389336, 'lon': -70.611816, 'country': 'United States', 'alt': 67}"
1730284745,"{'name': 'Martinique Aime Cesaire International Airport', 'iata': 'FDF', 'icao': 'TFFF', 'lat': 14.59222, 'lon': -60.9963, 'country': 'Martinique', 'alt': 16}"
1730284745,"{'name': 'Martinsburg Eastern WV Regional Airport', 'iata': 'MRB', 'icao': 'KMRB', 'lat': 39.401669, 'lon': -77.985001, 'country': 'United States', 'alt': 557}"
1730284745,"{'name': 'Marudi Airport', 'iata': 'MUR', 'icao': 'WBGM', 'lat': 4.1775, 'lon': 114.321899, 'country': 'Malaysia', 'alt': 103}"
1730284745,"{'name': 'Mary International Airport', 'iata': 'MYP', 'icao': 'UTAM', 'lat': 37.6194, 'lon': 61.896702, 'country': 'Turkmenistan', 'alt': 728}"
1730284745,"{'name': ""Mary's Harbour Airport"", 'iata': 'YMH', 'icao': 'CYMH', 'lat': 52.302799, 'lon': -55.847198, 'country': 'Canada', 'alt': 38}"
1730284745,"{'name': 'Maryborough Airport', 'iata': 'MBH', 'icao': 'YMYB', 'lat': -25.5133, 'lon': 152.714996, 'country': 'Australia', 'alt': 38}"
1730284745,"{'name': 'Marysville Yuba County Airport', 'iata': 'MYV', 'icao': 'KMYV', 'lat': 39.098057, 'lon': -121.569725, 'country': 'United States', 'alt': 62}"
1730284745,"{'name': 'Masbate Moises R. Espinosa Airport', 'iata': 'MBT', 'icao': 'RPVJ', 'lat': 12.369444, 'lon': 123.629166, 'country': 'Philippines', 'alt': 26}"
1730284745,"{'name': 'Maseru Moshoeshoe I International Airport', 'iata': 'MSU', 'icao': 'FXMM', 'lat': -29.4622, 'lon': 27.5525, 'country': 'Lesotho', 'alt': 5348}"
1730284745,"{'name': 'Mashhad International Airport', 'iata': 'MHD', 'icao': 'OIMM', 'lat': 36.235191, 'lon': 59.640968, 'country': 'Iran', 'alt': 3263}"
1730284745,"{'name': 'Mason City Municipal Airport', 'iata': 'MCW', 'icao': 'KMCW', 'lat': 43.156944, 'lon': -93.329445, 'country': 'United States', 'alt': 1213}"
1730284745,"{'name': 'Massa Cinquale Airport', 'iata': 'QIQ', 'icao': 'LILQ', 'lat': 43.986, 'lon': 10.1428, 'country': 'Italy', 'alt': 13}"
1730284745,"{'name': 'Massena International Airport', 'iata': 'MSS', 'icao': 'KMSS', 'lat': 44.935829, 'lon': -74.845497, 'country': 'United States', 'alt': 222}"
1730284745,"{'name': 'Masset Airport', 'iata': 'ZMT', 'icao': 'CZMT', 'lat': 54.02, 'lon': -132.119995, 'country': 'Canada', 'alt': 25}"
1730284745,"{'name': 'Masterton Hood Airport', 'iata': 'MRO', 'icao': 'NZMS', 'lat': -40.974709, 'lon': 175.634445, 'country': 'New Zealand', 'alt': 351}"
1730284745,"{'name': 'Masuda Hagi Iwami Airport', 'iata': 'IWJ', 'icao': 'RJOW', 'lat': 34.676388, 'lon': 131.790283, 'country': 'Japan', 'alt': 177}"
1730284745,"{'name': 'Matagami Airport', 'iata': 'YNM', 'icao': 'CYNM', 'lat': 49.761635, 'lon': -77.802521, 'country': 'Canada', 'alt': 883}"
1730284745,"{'name': 'Mataiva Airport', 'iata': 'MVT', 'icao': 'NTGV', 'lat': -14.8694, 'lon': -148.712997, 'country': 'French Polynesia', 'alt': 11}"
1730284745,"{'name': 'Matak Tarempa Airport', 'iata': 'MWK', 'icao': 'WIOM', 'lat': 3.34812, 'lon': 106.258003, 'country': 'Indonesia', 'alt': 10}"
1730284745,"{'name': 'Matamoros International Airport', 'iata': 'MAM', 'icao': 'MMMA', 'lat': 25.76989, 'lon': -97.525299, 'country': 'Mexico', 'alt': 25}"
1730284745,"{'name': 'Mataveri International Airport', 'iata': 'IPC', 'icao': 'SCIP', 'lat': -27.1647, 'lon': -109.420998, 'country': 'Chile', 'alt': 227}"
1730284745,"{'name': 'Matei Taveuni Airport', 'iata': 'TVU', 'icao': 'NFNM', 'lat': -16.6905, 'lon': -179.876007, 'country': 'Fiji', 'alt': 2986}"
1730284745,"{'name': 'Matsu Beigan Airport', 'iata': 'MFK', 'icao': 'RCMT', 'lat': 26.223888, 'lon': 120.002502, 'country': 'Taiwan', 'alt': 41}"
1730284745,"{'name': 'Matsu Nangan Airport', 'iata': 'LZN', 'icao': 'RCFG', 'lat': 26.1597, 'lon': 119.958397, 'country': 'Taiwan', 'alt': 232}"
1730284745,"{'name': 'Matsumoto Airport', 'iata': 'MMJ', 'icao': 'RJAF', 'lat': 36.166752, 'lon': 137.922607, 'country': 'Japan', 'alt': 2182}"
1730284745,"{'name': 'Matsuyama Airport', 'iata': 'MYJ', 'icao': 'RJOM', 'lat': 33.827221, 'lon': 132.699707, 'country': 'Japan', 'alt': 25}"
1730284745,"{'name': 'Mattoon/Charleston Coles County Memorial Airport', 'iata': 'MTO', 'icao': 'KMTO', 'lat': 39.477982, 'lon': -88.279648, 'country': 'United States', 'alt': 716}"
1730284745,"{'name': 'Maturin International Airport', 'iata': 'MUN', 'icao': 'SVMT', 'lat': 9.749067, 'lon': -63.1534, 'country': 'Venezuela', 'alt': 224}"
1730284745,"{'name': 'Maues Airport', 'iata': 'MBZ', 'icao': 'SWMW', 'lat': -3.37217, 'lon': -57.7248, 'country': 'Brazil', 'alt': 69}"
1730284745,"{'name': 'Maumere Frans Seda Airport', 'iata': 'MOF', 'icao': 'WATC', 'lat': -8.64064, 'lon': 122.236801, 'country': 'Indonesia', 'alt': 115}"
1730284745,"{'name': 'Maun Airport', 'iata': 'MUB', 'icao': 'FBMN', 'lat': -19.9725, 'lon': 23.43108, 'country': 'Botswana', 'alt': 3093}"
1730284745,"{'name': 'Maupiti Airport', 'iata': 'MAU', 'icao': 'NTTP', 'lat': -16.4263, 'lon': -152.242996, 'country': 'French Polynesia', 'alt': 15}"
1730284745,"{'name': 'Mawlamyine Airport', 'iata': 'MNU', 'icao': 'VYMM', 'lat': 16.4447, 'lon': 97.660698, 'country': 'Myanmar (Burma)', 'alt': 52}"
1730284745,"{'name': 'Maxton Airport', 'iata': 'MXE', 'icao': 'KMEB', 'lat': 34.792423, 'lon': -79.369392, 'country': 'United States', 'alt': 220}"
1730284745,"{'name': 'Mayaguana Airport', 'iata': 'MYG', 'icao': 'MYMM', 'lat': 22.37952, 'lon': -73.013496, 'country': 'Bahamas', 'alt': 11}"
1730284745,"{'name': 'Mayaguez Eugenio María de Hostos', 'iata': 'MAZ', 'icao': 'TJMZ', 'lat': 18.25569, 'lon': -67.148399, 'country': 'Puerto Rico', 'alt': 28}"
1730284745,"{'name': 'Mazamari Mayor Nancy Flores Paucar Airport', 'iata': 'MZA', 'icao': 'SPMF', 'lat': -11.325631, 'lon': -74.535728, 'country': 'Peru', 'alt': 2195}"
1730284745,"{'name': 'Mazar-I-Sharif International Airport', 'iata': 'MZR', 'icao': 'OAMS', 'lat': 36.706909, 'lon': 67.209671, 'country': 'Afghanistan', 'alt': 1284}"
1730284745,"{'name': 'Mazatlan International Airport', 'iata': 'MZT', 'icao': 'MMMZ', 'lat': 23.16135, 'lon': -106.265999, 'country': 'Mexico', 'alt': 38}"
1730284745,"{'name': 'Mbarara Airport', 'iata': 'MBQ', 'icao': 'HUMA', 'lat': -0.555278, 'lon': 30.599443, 'country': 'Uganda', 'alt': 4604}"
1730284745,"{'name': 'Mbuji Mayi Airport', 'iata': 'MJM', 'icao': 'FZWA', 'lat': -6.12123, 'lon': 23.569, 'country': 'Democratic Republic Of The Congo', 'alt': 2221}"
1730284745,"{'name': 'Mc Alester Regional', 'iata': 'MLC', 'icao': 'KMLC', 'lat': 34.882401, 'lon': -95.783401, 'country': 'United States', 'alt': 770}"
1730284745,"{'name': 'McAllen Miller International Airport', 'iata': 'MFE', 'icao': 'KMFE', 'lat': 26.175831, 'lon': -98.238602, 'country': 'United States', 'alt': 107}"
1730284745,"{'name': 'McArthur River Mine Airport', 'iata': 'MCV', 'icao': 'YMHU', 'lat': -16.444483, 'lon': 136.075821, 'country': 'Australia', 'alt': 138}"
1730284745,"{'name': 'McCall Municipal Airport', 'iata': 'MYL', 'icao': 'KMYL', 'lat': 44.89267, 'lon': -116.103989, 'country': 'United States', 'alt': 5021}"
1730284745,"{'name': 'McComb Pike County Airport', 'iata': 'MCB', 'icao': 'KMCB', 'lat': 31.178703, 'lon': -90.472, 'country': 'United States', 'alt': 403}"
1730284745,"{'name': 'McCook Ben Nelson Regional Airport', 'iata': 'MCK', 'icao': 'KMCK', 'lat': 40.206268, 'lon': -100.592003, 'country': 'United States', 'alt': 2582}"
1730284745,"{'name': 'McGrath Airport', 'iata': 'MCG', 'icao': 'PAMC', 'lat': 62.952751, 'lon': -155.604996, 'country': 'United States', 'alt': 341}"
1730284745,"{'name': 'McKinney National Airport', 'iata': 'QQT', 'icao': 'KTKI', 'lat': 33.178055, 'lon': -96.590553, 'country': 'United States', 'alt': 585}"
1730284745,"{'name': 'McMinnville Municipal Airport', 'iata': 'MMV', 'icao': 'KMMV', 'lat': 45.194439, 'lon': -123.135002, 'country': 'United States', 'alt': 163}"
1730284745,"{'name': 'McMurdo Ice Runway', 'iata': 'QAI', 'icao': 'NZIR', 'lat': -77.853889, 'lon': 166.468613, 'country': 'Antarctica', 'alt': 1}"
1730284745,"{'name': 'McMurdo Phoenix Airfield', 'iata': 'QAX', 'icao': 'NZFX', 'lat': -77.956429, 'lon': 166.766663, 'country': 'Antarctica', 'alt': 33}"
1730284745,"{'name': 'McMurdo Williams Field', 'iata': 'QAW', 'icao': 'NZWD', 'lat': -77.8675, 'lon': 167.056671, 'country': 'Antarctica', 'alt': 68}"
1730284745,"{'name': 'Meadow Lake Airport', 'iata': 'YLJ', 'icao': 'CYLJ', 'lat': 54.125271, 'lon': -108.522003, 'country': 'Canada', 'alt': 1576}"
1730284745,"{'name': 'Mechria Airport', 'iata': 'MZW', 'icao': 'DAAY', 'lat': 33.535381, 'lon': -0.242091, 'country': 'Algeria', 'alt': 3645}"
1730284745,"{'name': 'Medan Kuala Namu International Airport', 'iata': 'KNO', 'icao': 'WIMM', 'lat': 3.640252, 'lon': 98.872971, 'country': 'Indonesia', 'alt': 14}"
1730284745,"{'name': 'Medellin Enrique Olaya Herrera Airport', 'iata': 'EOH', 'icao': 'SKMD', 'lat': 6.219958, 'lon': -75.5905, 'country': 'Colombia', 'alt': 4940}"
1730284745,"{'name': 'Medellin Jose Maria Cordova International Airport', 'iata': 'MDE', 'icao': 'SKRG', 'lat': 6.164444, 'lon': -75.422997, 'country': 'Colombia', 'alt': 7025}"
1730284745,"{'name': 'Medford Rogue Valley International Airport', 'iata': 'MFR', 'icao': 'KMFR', 'lat': 42.374222, 'lon': -122.873001, 'country': 'United States', 'alt': 1335}"
1730284745,"{'name': 'Medicine Hat Airport', 'iata': 'YXH', 'icao': 'CYXH', 'lat': 50.01889, 'lon': -110.720001, 'country': 'Canada', 'alt': 2352}"
1730284745,"{'name': 'Medina Prince Mohammad bin Abdulaziz Airport', 'iata': 'MED', 'icao': 'OEMA', 'lat': 24.553419, 'lon': 39.705059, 'country': 'Saudi Arabia', 'alt': 2151}"
1730284745,"{'name': 'Meekathara Airport', 'iata': 'MKR', 'icao': 'YMEK', 'lat': -26.610001, 'lon': 118.540001, 'country': 'Australia', 'alt': 1713}"
1730284745,"{'name': 'Megeve Airport', 'iata': 'MVV', 'icao': 'LFHM', 'lat': 45.822281, 'lon': 6.649924, 'country': 'France', 'alt': 4747}"
1730284745,"{'name': 'Mehamn Airport', 'iata': 'MEH', 'icao': 'ENMH', 'lat': 71.02916, 'lon': 27.826111, 'country': 'Norway', 'alt': 41}"
1730284745,"{'name': 'Meixian Airport', 'iata': 'MXZ', 'icao': 'ZGMX', 'lat': 24.268999, 'lon': 116.103996, 'country': 'China', 'alt': 305}"
1730284745,"{'name': 'Mekele Alula Aba Nega Airport', 'iata': 'MQX', 'icao': 'HAMK', 'lat': 13.46736, 'lon': 39.533459, 'country': 'Ethiopia', 'alt': 7406}"
1730284745,"{'name': 'Mekoryuk Airport', 'iata': 'MYU', 'icao': 'PAMY', 'lat': 60.37278, 'lon': -166.268051, 'country': 'United States', 'alt': 48}"
1730284745,"{'name': 'Melangguane Airport', 'iata': 'MNA', 'icao': 'WAMN', 'lat': 4.006944, 'lon': 126.672997, 'country': 'Indonesia', 'alt': 14}"
1730284745,"{'name': 'Melbourne Airport', 'iata': 'MEL', 'icao': 'YMML', 'lat': -37.665794, 'lon': 144.837296, 'country': 'Australia', 'alt': 392}"
1730284745,"{'name': 'Melbourne Avalon Airport', 'iata': 'AVV', 'icao': 'YMAV', 'lat': -38.039398, 'lon': 144.469406, 'country': 'Australia', 'alt': 35}"
1730284745,"{'name': 'Melbourne Essendon Airport', 'iata': 'MEB', 'icao': 'YMEN', 'lat': -37.731159, 'lon': 144.901306, 'country': 'Australia', 'alt': 250}"
1730284745,"{'name': 'Melbourne International Airport', 'iata': 'MLB', 'icao': 'KMLB', 'lat': 28.102751, 'lon': -80.645203, 'country': 'United States', 'alt': 33}"
1730284745,"{'name': 'Melbourne Lilydale Airport', 'iata': 'QLL', 'icao': 'YLIL', 'lat': -37.692448, 'lon': 145.366562, 'country': 'Australia', 'alt': 215}"
1730284745,"{'name': 'Melbourne Moorabbin Airport', 'iata': 'MBW', 'icao': 'YMMB', 'lat': -37.9758, 'lon': 145.102203, 'country': 'Australia', 'alt': 50}"
1730284745,"{'name': 'Melfa Accomack County Airport', 'iata': 'MFV', 'icao': 'KMFV', 'lat': 37.647095, 'lon': -75.76091, 'country': 'United States', 'alt': 47}"
1730284745,"{'name': 'Melilla Airport', 'iata': 'MLN', 'icao': 'GEML', 'lat': 35.279812, 'lon': -2.95625, 'country': 'Spain', 'alt': 156}"
1730284745,"{'name': 'Melo Cerro Largo International Airport', 'iata': 'MLZ', 'icao': 'SUMO', 'lat': -32.337746, 'lon': -54.216408, 'country': 'Uruguay', 'alt': 341}"
1730284745,"{'name': 'Melun Villaroche Airport', 'iata': 'QFM', 'icao': 'LFPM', 'lat': 48.605293, 'lon': 2.670833, 'country': 'France', 'alt': 296}"
1730284745,"{'name': 'Memanbetsu Airport', 'iata': 'MMB', 'icao': 'RJCM', 'lat': 43.8806, 'lon': 144.164001, 'country': 'Japan', 'alt': 135}"
1730284745,"{'name': 'Memmingen Airport', 'iata': 'FMM', 'icao': 'EDJA', 'lat': 47.988609, 'lon': 10.239444, 'country': 'Germany', 'alt': 2077}"
1730284745,"{'name': 'Memphis International Airport', 'iata': 'MEM', 'icao': 'KMEM', 'lat': 35.042412, 'lon': -89.976601, 'country': 'United States', 'alt': 341}"
1730284745,"{'name': 'Mena Intermountain Municipal Airport', 'iata': 'UMZ', 'icao': 'KMEZ', 'lat': 34.545277, 'lon': -94.202782, 'country': 'United States', 'alt': 1074}"
1730284745,"{'name': 'Mende Brenoux Airport', 'iata': 'MEN', 'icao': 'LFNB', 'lat': 44.504082, 'lon': 3.527633, 'country': 'France', 'alt': 3362}"
1730284745,"{'name': 'Mendi Airport', 'iata': 'MDU', 'icao': 'AYMN', 'lat': -6.147783, 'lon': 143.657104, 'country': 'Papua New Guinea', 'alt': 5671}"
1730284745,"{'name': 'Mendoza International Airport', 'iata': 'MDZ', 'icao': 'SAME', 'lat': -32.831699, 'lon': -68.792801, 'country': 'Argentina', 'alt': 2310}"
1730284745,"{'name': 'Mengen Hohentengen Airport', 'iata': 'QCM', 'icao': 'EDTM', 'lat': 48.053753, 'lon': 9.372239, 'country': 'Germany', 'alt': 1821}"
1730284745,"{'name': 'Menominee Marinette Twin County Airport', 'iata': 'MNM', 'icao': 'KMNM', 'lat': 45.126652, 'lon': -87.638397, 'country': 'United States', 'alt': 625}"
1730284745,"{'name': 'Menongue Airport', 'iata': 'SPP', 'icao': 'FNME', 'lat': -14.6575, 'lon': 17.71983, 'country': 'Angola', 'alt': 4469}"
1730284745,"{'name': 'Merauke Mopah International Airport', 'iata': 'MKQ', 'icao': 'WAKK', 'lat': -8.52029, 'lon': 140.418396, 'country': 'Indonesia', 'alt': 10}"
1730284745,"{'name': 'Merced Municipal Airport', 'iata': 'MCE', 'icao': 'KMCE', 'lat': 37.284721, 'lon': -120.512779, 'country': 'United States', 'alt': 156}"
1730284745,"{'name': 'Merida Rejon Airport', 'iata': 'MID', 'icao': 'MMMD', 'lat': 20.936979, 'lon': -89.6576, 'country': 'Mexico', 'alt': 38}"
1730284745,"{'name': 'Meridian Regional Airport', 'iata': 'MEI', 'icao': 'KMEI', 'lat': 32.337223, 'lon': -88.749168, 'country': 'United States', 'alt': 297}"
1730284745,"{'name': 'Merimbula Airport', 'iata': 'MIM', 'icao': 'YMER', 'lat': -36.9086, 'lon': 149.901306, 'country': 'Australia', 'alt': 7}"
1730284745,"{'name': 'Merlo Valle Del Conlara International Airport', 'iata': 'RLO', 'icao': 'SAOS', 'lat': -32.3843, 'lon': -65.1856, 'country': 'Argentina', 'alt': 2026}"
1730284745,"{'name': 'Merritt Island Airport', 'iata': 'COI', 'icao': 'KCOI', 'lat': 28.3416, 'lon': -80.685501, 'country': 'United States', 'alt': 6}"
1730284745,"{'name': 'Mersin Cukurova International Airport', 'iata': 'COV', 'icao': 'LTDB', 'lat': 36.892776, 'lon': 35.072136, 'country': 'Turkey', 'alt': 21}"
1730284745,"{'name': 'Meru Mulika Lodge Airport', 'iata': 'JJM', 'icao': 'HKMK', 'lat': 0.165006, 'lon': 38.195026, 'country': 'Kenya', 'alt': 1972}"
1730284745,"{'name': 'Merville Calonne Airport', 'iata': 'HZB', 'icao': 'LFQT', 'lat': 50.618401, 'lon': 2.64224, 'country': 'France', 'alt': 61}"
1730284745,"{'name': 'Merzifon Airport', 'iata': 'MZH', 'icao': 'LTAP', 'lat': 40.829369, 'lon': 35.521992, 'country': 'Turkey', 'alt': 1758}"
1730284745,"{'name': 'Mesa Falcon Field Airport', 'iata': 'MSC', 'icao': 'KFFZ', 'lat': 33.4608, 'lon': -111.727997, 'country': 'United States', 'alt': 1394}"
1730284745,"{'name': 'Metz-Nancy-Lorraine Airport', 'iata': 'ETZ', 'icao': 'LFJL', 'lat': 48.978329, 'lon': 6.246667, 'country': 'France', 'alt': 870}"
1730284745,"{'name': 'Meulaboh Cut Nyak Dhien Airport', 'iata': 'MEQ', 'icao': 'WITC', 'lat': 4.040779, 'lon': 96.253479, 'country': 'Indonesia', 'alt': 9}"
1730284745,"{'name': 'Mexicali International Airport', 'iata': 'MXL', 'icao': 'MMML', 'lat': 32.63063, 'lon': -115.240997, 'country': 'Mexico', 'alt': 74}"
1730284745,"{'name': 'Mexico City Atizapan Jimenez Cantu Airport', 'iata': 'AZP', 'icao': 'MMJC', 'lat': 19.574911, 'lon': -99.288811, 'country': 'Mexico', 'alt': 7993}"
1730284745,"{'name': 'Mexico City Felipe Angeles International Airport', 'iata': 'NLU', 'icao': 'MMSM', 'lat': 19.755301, 'lon': -99.016403, 'country': 'Mexico', 'alt': 7369}"
1730284745,"{'name': 'Mexico City International Airport', 'iata': 'MEX', 'icao': 'MMMX', 'lat': 19.4363, 'lon': -99.071999, 'country': 'Mexico', 'alt': 7316}"
1730284745,"{'name': 'Mfuwe Airport', 'iata': 'MFU', 'icao': 'FLMF', 'lat': -13.259051, 'lon': 31.935701, 'country': 'Zambia', 'alt': 1841}"
1730284745,"{'name': 'Miami Dade Collier Training and Transition Airport', 'iata': 'TNT', 'icao': 'KTNT', 'lat': 25.861799, 'lon': -80.897003, 'country': 'United States', 'alt': 13}"
1730284745,"{'name': 'Miami Executive Airport', 'iata': 'TMB', 'icao': 'KTMB', 'lat': 25.647881, 'lon': -80.432701, 'country': 'United States', 'alt': 10}"
1730284745,"{'name': 'Miami International Airport', 'iata': 'MIA', 'icao': 'KMIA', 'lat': 25.793249, 'lon': -80.290497, 'country': 'United States', 'alt': 8}"
1730284745,"{'name': 'Miami Municipal Airport', 'iata': 'MIO', 'icao': 'KMIO', 'lat': 36.908009, 'lon': -94.887489, 'country': 'United States', 'alt': 803}"
1730284745,"{'name': 'Miami Opa Locka Executive Airport', 'iata': 'OPF', 'icao': 'KOPF', 'lat': 25.907, 'lon': -80.278297, 'country': 'United States', 'alt': 8}"
1730284745,"{'name': 'Mianyang Nanjiao Airport', 'iata': 'MIG', 'icao': 'ZUMY', 'lat': 31.43111, 'lon': 104.738052, 'country': 'China', 'alt': 4593}"
1730284745,"{'name': 'Middlemount Airport', 'iata': 'MMM', 'icao': 'YMMU', 'lat': -22.8025, 'lon': 148.705002, 'country': 'Australia', 'alt': 547}"
1730284745,"{'name': 'Middletown Regional Airport', 'iata': 'MWO', 'icao': 'KMWO', 'lat': 39.529251, 'lon': -84.394165, 'country': 'United States', 'alt': 643}"
1730284745,"{'name': 'Midland Airpark', 'iata': 'MDD', 'icao': 'KMDD', 'lat': 32.033176, 'lon': -102.098862, 'country': 'United States', 'alt': 2797}"
1730284745,"{'name': 'Midland International Airport', 'iata': 'MAF', 'icao': 'KMAF', 'lat': 31.94252, 'lon': -102.200996, 'country': 'United States', 'alt': 2872}"
1730284745,"{'name': 'Mielec Airport', 'iata': 'QPM', 'icao': 'EPML', 'lat': 50.322224, 'lon': 21.462221, 'country': 'Poland', 'alt': 548}"
1730284745,"{'name': 'Mikkeli Airport', 'iata': 'MIK', 'icao': 'EFMI', 'lat': 61.686764, 'lon': 27.201553, 'country': 'Finland', 'alt': 319}"
1730284745,"{'name': 'Milan Bergamo Orio al Serio International Airport', 'iata': 'BGY', 'icao': 'LIME', 'lat': 45.668304, 'lon': 9.704209, 'country': 'Italy', 'alt': 782}"
1730284745,"{'name': 'Milan Linate Airport', 'iata': 'LIN', 'icao': 'LIML', 'lat': 45.445099, 'lon': 9.276739, 'country': 'Italy', 'alt': 353}"
1730284745,"{'name': 'Milan Malpensa Airport', 'iata': 'MXP', 'icao': 'LIMC', 'lat': 45.6306, 'lon': 8.728111, 'country': 'Italy', 'alt': 767}"
1730284745,"{'name': 'Mildura Airport', 'iata': 'MQL', 'icao': 'YMIA', 'lat': -34.229099, 'lon': 142.085495, 'country': 'Australia', 'alt': 167}"
1730284745,"{'name': 'Miles Airport', 'iata': 'WLE', 'icao': 'YMLS', 'lat': -26.809168, 'lon': 150.164993, 'country': 'Australia', 'alt': 996}"
1730284745,"{'name': 'Miles City Municipal Airport', 'iata': 'MLS', 'icao': 'KMLS', 'lat': 46.430557, 'lon': -105.880554, 'country': 'United States', 'alt': 2628}"
1730284745,"{'name': 'Milford Sound Airport', 'iata': 'MFN', 'icao': 'NZMF', 'lat': -44.673302, 'lon': 167.923294, 'country': 'New Zealand', 'alt': 10}"
1730284745,"{'name': 'Milikapiti Snake Bay Airport', 'iata': 'SNB', 'icao': 'YSNB', 'lat': -11.4228, 'lon': 130.654007, 'country': 'Australia', 'alt': 173}"
1730284745,"{'name': 'Milingimbi Airport', 'iata': 'MGT', 'icao': 'YMGB', 'lat': -12.093703, 'lon': 134.893524, 'country': 'Australia', 'alt': 53}"
1730284745,"{'name': 'Milledgeville Baldwin County Airport', 'iata': 'MLJ', 'icao': 'KMLJ', 'lat': 33.154213, 'lon': -83.241035, 'country': 'United States', 'alt': 378}"
1730284745,"{'name': 'Millicent Airport', 'iata': 'MLR', 'icao': 'YMCT', 'lat': -37.582989, 'lon': 140.366684, 'country': 'Australia', 'alt': 58}"
1730284745,"{'name': 'Millington Memphis Airport', 'iata': 'NQA', 'icao': 'KNQA', 'lat': 35.356659, 'lon': -89.870201, 'country': 'United States', 'alt': 319}"
1730284745,"{'name': 'Millville Executive Airport', 'iata': 'MIV', 'icao': 'KMIV', 'lat': 39.367802, 'lon': -75.072197, 'country': 'United States', 'alt': 84}"
1730284745,"{'name': 'Milos Island National Airport', 'iata': 'MLO', 'icao': 'LGML', 'lat': 36.69611, 'lon': 24.477501, 'country': 'Greece', 'alt': 12}"
1730284745,"{'name': 'Milton Whiting Field Naval Air Station', 'iata': 'NSE', 'icao': 'KNSE', 'lat': 30.722469, 'lon': -87.023903, 'country': 'United States', 'alt': 199}"
1730284745,"{'name': 'Milwaukee General Mitchell International Airport', 'iata': 'MKE', 'icao': 'KMKE', 'lat': 42.94722, 'lon': -87.8965, 'country': 'United States', 'alt': 729}"
1730284745,"{'name': 'Milwaukee Lawrence J. Timmerman Airport', 'iata': 'MWC', 'icao': 'KMWC', 'lat': 43.110638, 'lon': -88.033295, 'country': 'United States', 'alt': 745}"
1730284745,"{'name': 'Minamidaito Airport', 'iata': 'MMD', 'icao': 'ROMD', 'lat': 25.846531, 'lon': 131.263397, 'country': 'Japan', 'alt': 167}"
1730284745,"{'name': 'Minatitlan Coatzacoalcos International Airport', 'iata': 'MTT', 'icao': 'MMMT', 'lat': 18.103411, 'lon': -94.580597, 'country': 'Mexico', 'alt': 36}"
1730284745,"{'name': 'Minchumina Airport', 'iata': 'LMA', 'icao': 'PAMH', 'lat': 63.885136, 'lon': -152.30394, 'country': 'United States', 'alt': 674}"
1730284745,"{'name': 'Minden Tahoe Airport', 'iata': 'MEV', 'icao': 'KMEV', 'lat': 39, 'lon': -119.75, 'country': 'United States', 'alt': 4717}"
1730284745,"{'name': 'Mineral Point Iowa County Airport', 'iata': 'QQJ', 'icao': 'KMRJ', 'lat': 42.886944, 'lon': -90.236664, 'country': 'United States', 'alt': 1170}"
1730284745,"{'name': 'Mineral Wells Airport', 'iata': 'MWL', 'icao': 'KMWL', 'lat': 32.781601, 'lon': -98.060097, 'country': 'United States', 'alt': 974}"
1730284745,"{'name': 'Mineralnye Vody Airport', 'iata': 'MRV', 'icao': 'URMM', 'lat': 44.225071, 'lon': 43.081879, 'country': 'Russia', 'alt': 1054}"
1730284745,"{'name': 'Minlaton Airport', 'iata': 'XML', 'icao': 'YMIN', 'lat': -34.743229, 'lon': 137.528931, 'country': 'Australia', 'alt': 110}"
1730284745,"{'name': 'Minneapolis Anoka County Blaine Airport', 'iata': 'QQA', 'icao': 'KANE', 'lat': 45.145, 'lon': -93.210281, 'country': 'United States', 'alt': 912}"
1730284745,"{'name': 'Minneapolis Crystal Airport', 'iata': 'MIC', 'icao': 'KMIC', 'lat': 45.061943, 'lon': -93.353889, 'country': 'United States', 'alt': 869}"
1730284745,"{'name': 'Minneapolis Flying Cloud Airport', 'iata': 'FCM', 'icao': 'KFCM', 'lat': 44.827221, 'lon': -93.457222, 'country': 'United States', 'alt': 906}"
1730284745,"{'name': 'Minneapolis Saint Paul International Airport', 'iata': 'MSP', 'icao': 'KMSP', 'lat': 44.88195, 'lon': -93.221703, 'country': 'United States', 'alt': 841}"
1730284745,"{'name': 'Minocqua Woodruff Lakeland Airport', 'iata': 'ARV', 'icao': 'KARV', 'lat': 45.924168, 'lon': -89.732224, 'country': 'United States', 'alt': 1630}"
1730284745,"{'name': 'Minot Air Force Base', 'iata': 'MIB', 'icao': 'KMIB', 'lat': 48.416069, 'lon': -101.358711, 'country': 'United States', 'alt': 1657}"
1730284745,"{'name': 'Minot International Airport', 'iata': 'MOT', 'icao': 'KMOT', 'lat': 48.257629, 'lon': -101.278, 'country': 'United States', 'alt': 1716}"
1730284745,"{'name': 'Minsk National Airport', 'iata': 'MSQ', 'icao': 'UMMS', 'lat': 53.882462, 'lon': 28.030729, 'country': 'Belarus', 'alt': 670}"
1730284745,"{'name': 'Miramichi Airport', 'iata': 'YCH', 'icao': 'CYCH', 'lat': 47.007771, 'lon': -65.449097, 'country': 'Canada', 'alt': 108}"
1730284745,"{'name': 'Miri Airport', 'iata': 'MYY', 'icao': 'WBGR', 'lat': 4.322014, 'lon': 113.986801, 'country': 'Malaysia', 'alt': 59}"
1730284745,"{'name': 'Mirny Airport', 'iata': 'MJZ', 'icao': 'UERR', 'lat': 62.534679, 'lon': 114.038902, 'country': 'Russia', 'alt': 1156}"
1730284745,"{'name': 'Misawa Airport', 'iata': 'MSJ', 'icao': 'RJSM', 'lat': 40.70322, 'lon': 141.368301, 'country': 'Japan', 'alt': 119}"
1730284745,"{'name': 'Misima Island Airport', 'iata': 'MIS', 'icao': 'AYMS', 'lat': -10.6892, 'lon': 152.837997, 'country': 'Papua New Guinea', 'alt': 26}"
1730284745,"{'name': 'Misrata International Airport', 'iata': 'MRA', 'icao': 'HLMS', 'lat': 32.327263, 'lon': 15.05955, 'country': 'Libya', 'alt': 29}"
1730284745,"{'name': 'Missoula International Airport', 'iata': 'MSO', 'icao': 'KMSO', 'lat': 46.916302, 'lon': -114.089996, 'country': 'United States', 'alt': 3206}"
1730284745,"{'name': 'Mitchell Airport', 'iata': 'MTQ', 'icao': 'YMIT', 'lat': -26.486603, 'lon': 147.944641, 'country': 'Australia', 'alt': 1127}"
1730284745,"{'name': 'Mitchell Municipal Airport', 'iata': 'MHE', 'icao': 'KMHE', 'lat': 43.77103, 'lon': -98.037498, 'country': 'United States', 'alt': 1298}"
1730284745,"{'name': 'Mitchell Plateau Airport', 'iata': 'MIH', 'icao': 'YMIP', 'lat': -14.791047, 'lon': 125.825867, 'country': 'Australia', 'alt': 1064}"
1730284745,"{'name': 'Mitu Fabio Alberto Leon Bentley Airport', 'iata': 'MVP', 'icao': 'SKMU', 'lat': 1.253531, 'lon': -70.234001, 'country': 'Colombia', 'alt': 680}"
1730284745,"{'name': 'Miyakejima Airport', 'iata': 'MYE', 'icao': 'RJTQ', 'lat': 34.072659, 'lon': 139.560043, 'country': 'Japan', 'alt': 60}"
1730284745,"{'name': 'Miyako Airport', 'iata': 'MMY', 'icao': 'ROMY', 'lat': 24.782829, 'lon': 125.295097, 'country': 'Japan', 'alt': 150}"
1730284745,"{'name': 'Miyazaki Airport', 'iata': 'KMI', 'icao': 'RJFM', 'lat': 31.87722, 'lon': 131.448593, 'country': 'Japan', 'alt': 20}"
1730284745,"{'name': 'Mnichovo Hradiste Airport', 'iata': 'HRA', 'icao': 'LKMH', 'lat': 50.540024, 'lon': 15.006487, 'country': 'Czechia', 'alt': 799}"
1730284745,"{'name': 'Mo i Rana Airport', 'iata': 'MQN', 'icao': 'ENRA', 'lat': 66.363876, 'lon': 14.30138, 'country': 'Norway', 'alt': 229}"
1730284745,"{'name': 'Moab Canyonlands Field', 'iata': 'CNY', 'icao': 'KCNY', 'lat': 38.759445, 'lon': -109.746109, 'country': 'United States', 'alt': 4553}"
1730284745,"{'name': 'Moberly Airport', 'iata': 'MBY', 'icao': 'KMBY', 'lat': 39.46389, 'lon': -92.426666, 'country': 'United States', 'alt': 867}"
1730284745,"{'name': 'Mobile International Airport', 'iata': 'BFM', 'icao': 'KBFM', 'lat': 30.620049, 'lon': -88.065941, 'country': 'United States', 'alt': 25}"
1730284745,"{'name': 'Mobile Regional Airport', 'iata': 'MOB', 'icao': 'KMOB', 'lat': 30.69141, 'lon': -88.242798, 'country': 'United States', 'alt': 219}"
1730284745,"{'name': 'Mobridge Municipal Airport', 'iata': 'MBG', 'icao': 'KMBG', 'lat': 45.544731, 'lon': -100.406876, 'country': 'United States', 'alt': 1693}"
1730284745,"{'name': 'Modena Marzaglia Airport', 'iata': 'QIM', 'icao': 'LIPM', 'lat': 44.631397, 'lon': 10.808599, 'country': 'Italy', 'alt': 177}"
1730284745,"{'name': 'Modesto City County Airport', 'iata': 'MOD', 'icao': 'KMOD', 'lat': 37.625809, 'lon': -120.954002, 'country': 'United States', 'alt': 99}"
1730284745,"{'name': 'Moenjodaro Airport', 'iata': 'MJD', 'icao': 'OPMJ', 'lat': 27.33515, 'lon': 68.143051, 'country': 'Pakistan', 'alt': 154}"
1730284745,"{'name': 'Mogadishu Aden Adde International Airport', 'iata': 'MGQ', 'icao': 'HCMM', 'lat': 2.014444, 'lon': 45.304722, 'country': 'Somalia', 'alt': 29}"
1730284745,"{'name': 'Mogilev Airport', 'iata': 'MVQ', 'icao': 'UMOO', 'lat': 53.954899, 'lon': 30.0951, 'country': 'Belarus', 'alt': 637}"
1730284745,"{'name': 'Mohe Gulian Airport', 'iata': 'OHE', 'icao': 'ZYMH', 'lat': 52.921131, 'lon': 122.420593, 'country': 'China', 'alt': 1800}"
1730284745,"{'name': 'Mojave Air and Space Port', 'iata': 'MHV', 'icao': 'KMHV', 'lat': 35.059113, 'lon': -118.148285, 'country': 'United States', 'alt': 2743}"
1730284745,"{'name': 'Mokuti Lodge Airport', 'iata': 'OKU', 'icao': 'FYMO', 'lat': -18.813002, 'lon': 17.057985, 'country': 'Namibia', 'alt': 3668}"
1730284745,"{'name': 'Molde Aro Airport', 'iata': 'MOL', 'icao': 'ENML', 'lat': 62.74472, 'lon': 7.2625, 'country': 'Norway', 'alt': 10}"
1730284745,"{'name': 'Moline Quad City International Airport', 'iata': 'MLI', 'icao': 'KMLI', 'lat': 41.448879, 'lon': -90.504738, 'country': 'United States', 'alt': 581}"
1730284745,"{'name': 'Mollis Airport', 'iata': 'QYW', 'icao': 'LSZM', 'lat': 47.078255, 'lon': 9.064686, 'country': 'Switzerland', 'alt': 1469}"
1730284745,"{'name': 'Mombasa Moi International Airport', 'iata': 'MBA', 'icao': 'HKMO', 'lat': -4.03483, 'lon': 39.59425, 'country': 'Kenya', 'alt': 200}"
1730284745,"{'name': 'Mompos San Bernardo Airport', 'iata': 'MMP', 'icao': 'SKIO', 'lat': 9.259722, 'lon': -74.437775, 'country': 'Colombia', 'alt': 65}"
1730284745,"{'name': 'Monastir Habib Bourguiba International Airport', 'iata': 'MIR', 'icao': 'DTMB', 'lat': 35.758049, 'lon': 10.75472, 'country': 'Tunisia', 'alt': 9}"
1730284745,"{'name': 'Monbetsu Airport', 'iata': 'MBE', 'icao': 'RJEB', 'lat': 44.303909, 'lon': 143.404007, 'country': 'Japan', 'alt': 80}"
1730284745,"{'name': 'Monclova International Airport', 'iata': 'LOV', 'icao': 'MMMV', 'lat': 26.95573, 'lon': -101.470001, 'country': 'Mexico', 'alt': 1864}"
1730284745,"{'name': 'Moncton International Airport', 'iata': 'YQM', 'icao': 'CYQM', 'lat': 46.112221, 'lon': -64.678596, 'country': 'Canada', 'alt': 232}"
1730284745,"{'name': 'Mong Hsat Airport', 'iata': 'MOG', 'icao': 'VYMS', 'lat': 20.517553, 'lon': 99.259354, 'country': 'Myanmar (Burma)', 'alt': 1884}"
1730284745,"{'name': 'Mongomo Mongomeyen Airport', 'iata': 'GEM', 'icao': 'FGMY', 'lat': 1.68363, 'lon': 11.024275, 'country': 'Equatorial Guinea', 'alt': 2158}"
1730284745,"{'name': 'Monkey Mia Shark Bay Airport', 'iata': 'MJK', 'icao': 'YSHK', 'lat': -25.893333, 'lon': 113.576668, 'country': 'Australia', 'alt': 111}"
1730284745,"{'name': 'Monroe Custer Airport', 'iata': 'QQM', 'icao': 'KTTF', 'lat': 41.93935, 'lon': -83.434921, 'country': 'United States', 'alt': 614}"
1730284745,"{'name': 'Monroe Executive Airport', 'iata': 'QSQ', 'icao': 'KEQY', 'lat': 35.018452, 'lon': -80.620728, 'country': 'United States', 'alt': 670}"
1730284745,"{'name': 'Monroe Regional Airport', 'iata': 'MLU', 'icao': 'KMLU', 'lat': 32.51086, 'lon': -92.037598, 'country': 'United States', 'alt': 79}"
1730284745,"{'name': 'Monroeville Monroe County Airport', 'iata': 'MVC', 'icao': 'KMVC', 'lat': 31.458, 'lon': -87.350998, 'country': 'United States', 'alt': 419}"
1730284745,"{'name': 'Monrovia Roberts International Airport', 'iata': 'ROB', 'icao': 'GLRB', 'lat': 6.233789, 'lon': -10.3623, 'country': 'Liberia', 'alt': 31}"
1730284745,"{'name': 'Mont Tremblant International Airport', 'iata': 'YTM', 'icao': 'CYFJ', 'lat': 46.409168, 'lon': -74.779999, 'country': 'Canada', 'alt': 825}"
1730284745,"{'name': 'Mont-Joli Airport', 'iata': 'YYY', 'icao': 'CYYY', 'lat': 48.608608, 'lon': -68.208, 'country': 'Canada', 'alt': 172}"
1730284745,"{'name': 'Montauk Airport', 'iata': 'MTP', 'icao': 'KMTP', 'lat': 41.074444, 'lon': -71.923615, 'country': 'United States', 'alt': 20}"
1730284745,"{'name': 'Monte Alegre Airport', 'iata': 'MTE', 'icao': 'SNMA', 'lat': -1.9958, 'lon': -54.0742, 'country': 'Brazil', 'alt': 325}"
1730284745,"{'name': 'Monte Carlo Monaco Heliport', 'iata': 'MCM', 'icao': 'LNMC', 'lat': 43.725552, 'lon': 7.420278, 'country': 'Monaco', 'alt': 20}"
1730284745,"{'name': 'Monte Dourado Serra do Areao Airport', 'iata': 'MEU', 'icao': 'SBMD', 'lat': -0.889839, 'lon': -52.6022, 'country': 'Brazil', 'alt': 677}"
1730284745,"{'name': 'Montego Bay Sangster International Airport', 'iata': 'MBJ', 'icao': 'MKJS', 'lat': 18.50371, 'lon': -77.9133, 'country': 'Jamaica', 'alt': 4}"
1730284745,"{'name': 'Montelibano Airport', 'iata': 'MTB', 'icao': 'SKML', 'lat': 7.971793, 'lon': -75.43264, 'country': 'Colombia', 'alt': 147}"
1730284745,"{'name': 'Monterey Regional Airport', 'iata': 'MRY', 'icao': 'KMRY', 'lat': 36.587002, 'lon': -121.842003, 'country': 'United States', 'alt': 257}"
1730284745,"{'name': 'Monteria Los Garzones Airport', 'iata': 'MTR', 'icao': 'SKMR', 'lat': 8.823678, 'lon': -75.825897, 'country': 'Colombia', 'alt': 36}"
1730284745,"{'name': 'Monterrey Del Norte International Airport', 'iata': 'NTR', 'icao': 'MMAN', 'lat': 25.86557, 'lon': -100.237, 'country': 'Mexico', 'alt': 1476}"
1730284745,"{'name': 'Monterrey International Airport', 'iata': 'MTY', 'icao': 'MMMY', 'lat': 25.778481, 'lon': -100.106003, 'country': 'Mexico', 'alt': 1278}"
1730284745,"{'name': 'Montes Claros Airport', 'iata': 'MOC', 'icao': 'SBMK', 'lat': -16.7069, 'lon': -43.818901, 'country': 'Brazil', 'alt': 2191}"
1730284745,"{'name': 'Montevideo Carrasco International Airport', 'iata': 'MVD', 'icao': 'SUMU', 'lat': -34.838402, 'lon': -56.0308, 'country': 'Uruguay', 'alt': 105}"
1730284745,"{'name': 'Montevideo Chippewa County Airport', 'iata': 'MVE', 'icao': 'KMVE', 'lat': 44.950001, 'lon': -95.716667, 'country': 'United States', 'alt': 1034}"
1730284745,"{'name': 'Montgomery Maxwell Air Force Base', 'iata': 'MXF', 'icao': 'KMXF', 'lat': 32.38065, 'lon': -86.365334, 'country': 'United States', 'alt': 166}"
1730284745,"{'name': 'Montgomery Orange County Airport', 'iata': 'MGJ', 'icao': 'KMGJ', 'lat': 41.516666, 'lon': -74.26667, 'country': 'United States', 'alt': 365}"
1730284745,"{'name': 'Montgomery Regional Airport', 'iata': 'MGM', 'icao': 'KMGM', 'lat': 32.300629, 'lon': -86.393898, 'country': 'United States', 'alt': 221}"
1730284745,"{'name': 'Monticello Municipal Airport', 'iata': 'MXO', 'icao': 'KMXO', 'lat': 42.22028, 'lon': -91.16333, 'country': 'United States', 'alt': 840}"
1730284745,"{'name': 'Monticello Sullivan County International Airport', 'iata': 'MSV', 'icao': 'KMSV', 'lat': 41.701389, 'lon': -74.794998, 'country': 'United States', 'alt': 1403}"
1730284745,"{'name': 'Montlucon Gueret Airport', 'iata': 'MCU', 'icao': 'LFBK', 'lat': 46.223827, 'lon': 2.363722, 'country': 'France', 'alt': 1320}"
1730284745,"{'name': 'Monto Airport', 'iata': 'MNQ', 'icao': 'YMTO', 'lat': -24.8923, 'lon': 151.101761, 'country': 'Australia', 'alt': 761}"
1730284745,"{'name': 'Montpellier Mediterranee Airport', 'iata': 'MPL', 'icao': 'LFMT', 'lat': 43.58028, 'lon': 3.96744, 'country': 'France', 'alt': 3}"
1730284745,"{'name': 'Montreal Metropolitan Airport', 'iata': 'YHU', 'icao': 'CYHU', 'lat': 45.517952, 'lon': -73.418144, 'country': 'Canada', 'alt': 85}"
1730284745,"{'name': 'Montreal Mirabel International Airport', 'iata': 'YMX', 'icao': 'CYMX', 'lat': 45.681938, 'lon': -74.005203, 'country': 'Canada', 'alt': 270}"
1730284745,"{'name': 'Montreal Pierre Elliott Trudeau Airport', 'iata': 'YUL', 'icao': 'CYUL', 'lat': 45.470551, 'lon': -73.740799, 'country': 'Canada', 'alt': 118}"
1730284745,"{'name': 'Montrose Regional Airport', 'iata': 'MTJ', 'icao': 'KMTJ', 'lat': 38.509789, 'lon': -107.893997, 'country': 'United States', 'alt': 5759}"
1730284745,"{'name': 'Montserrat John A. Osborne Airport', 'iata': 'MNI', 'icao': 'TRPG', 'lat': 16.791109, 'lon': -62.193001, 'country': 'Montserrat', 'alt': 551}"
1730284745,"{'name': 'Monywa Airport', 'iata': 'NYW', 'icao': 'VYMY', 'lat': 22.22151, 'lon': 95.093979, 'country': 'Myanmar (Burma)', 'alt': 263}"
1730284745,"{'name': 'Moomba Airport', 'iata': 'MOO', 'icao': 'YOOM', 'lat': -28.0994, 'lon': 140.197006, 'country': 'Australia', 'alt': 143}"
1730284745,"{'name': 'Moorea Airport', 'iata': 'MOZ', 'icao': 'NTTM', 'lat': -17.489901, 'lon': -149.761002, 'country': 'French Polynesia', 'alt': 9}"
1730284745,"{'name': 'Moose Jaw Municipal Airport', 'iata': 'YMJ', 'icao': 'CYMJ', 'lat': 50.330269, 'lon': -105.558998, 'country': 'Canada', 'alt': 1892}"
1730284745,"{'name': 'Moosonee Airport', 'iata': 'YMO', 'icao': 'CYMO', 'lat': 51.291111, 'lon': -80.607697, 'country': 'Canada', 'alt': 30}"
1730284745,"{'name': 'Mora Siljan Airport', 'iata': 'MXX', 'icao': 'ESKM', 'lat': 60.957901, 'lon': 14.51138, 'country': 'Sweden', 'alt': 634}"
1730284745,"{'name': 'Moradabad Airport', 'iata': 'MZS', 'icao': 'VIMB', 'lat': 28.817505, 'lon': 78.927567, 'country': 'India', 'alt': 712}"
1730284745,"{'name': 'Moranbah Airport', 'iata': 'MOV', 'icao': 'YMRB', 'lat': -22.058332, 'lon': 148.078339, 'country': 'Australia', 'alt': 770}"
1730284745,"{'name': 'Morawa Airport', 'iata': 'MWB', 'icao': 'YMRW', 'lat': -29.202637, 'lon': 116.022049, 'country': 'Australia', 'alt': 893}"
1730284745,"{'name': 'Moree Airport', 'iata': 'MRZ', 'icao': 'YMOR', 'lat': -29.496346, 'lon': 149.850189, 'country': 'Australia', 'alt': 701}"
1730284745,"{'name': 'Morelia International Airport', 'iata': 'MLM', 'icao': 'MMMM', 'lat': 19.849939, 'lon': -101.025002, 'country': 'Mexico', 'alt': 6033}"
1730284745,"{'name': 'Morganton Foothills Regional Airport', 'iata': 'MRN', 'icao': 'KMRN', 'lat': 35.82, 'lon': -81.610001, 'country': 'United States', 'alt': 1270}"
1730284745,"{'name': 'Morgantown Municipal Airport', 'iata': 'MGW', 'icao': 'KMGW', 'lat': 39.642776, 'lon': -79.915833, 'country': 'United States', 'alt': 1248}"
1730284745,"{'name': 'Morlaix Ploujean Airport', 'iata': 'MXN', 'icao': 'LFRU', 'lat': 48.600739, 'lon': -3.81666, 'country': 'France', 'alt': 277}"
1730284745,"{'name': 'Mornington Island Airport', 'iata': 'ONG', 'icao': 'YMTI', 'lat': -16.66, 'lon': 139.169998, 'country': 'Australia', 'alt': 33}"
1730284745,"{'name': 'Moro Airport', 'iata': 'MXH', 'icao': 'AYMR', 'lat': -6.36333, 'lon': 143.238007, 'country': 'Papua New Guinea', 'alt': 2740}"
1730284745,"{'name': 'Moron Air Base', 'iata': 'OZP', 'icao': 'LEMO', 'lat': 37.174774, 'lon': -5.615983, 'country': 'Spain', 'alt': 270}"
1730284745,"{'name': 'Mörön Airport', 'iata': 'MXV', 'icao': 'ZMMN', 'lat': 49.6633, 'lon': 100.098999, 'country': 'Mongolia', 'alt': 4272}"
1730284745,"{'name': 'Morondava Airport', 'iata': 'MOQ', 'icao': 'FMMV', 'lat': -20.2847, 'lon': 44.317612, 'country': 'Madagascar', 'alt': 30}"
1730284745,"{'name': 'Moroni Prince Said Ibrahim International Airport', 'iata': 'HAH', 'icao': 'FMCH', 'lat': -11.5336, 'lon': 43.271851, 'country': 'Comoros', 'alt': 93}"
1730284745,"{'name': 'Morotai Leo Wattimena Airport', 'iata': 'OTI', 'icao': 'WAEW', 'lat': 2.045992, 'lon': 128.324707, 'country': 'Indonesia', 'alt': 49}"
1730284745,"{'name': 'Morowali IMIP Airport', 'iata': 'MWS', 'icao': 'WAMP', 'lat': -2.79929, 'lon': 122.141335, 'country': 'Indonesia', 'alt': 4}"
1730284745,"{'name': 'Morowali Maleo Airport', 'iata': 'MOH', 'icao': 'WAFO', 'lat': -2.202111, 'lon': 121.661797, 'country': 'Indonesia', 'alt': 19}"
1730284745,"{'name': 'Morris Municipal Airport', 'iata': 'MOX', 'icao': 'KMOX', 'lat': 45.583332, 'lon': -95.916664, 'country': 'United States', 'alt': 1130}"
1730284745,"{'name': 'Morristown Municipal Airport', 'iata': 'MMU', 'icao': 'KMMU', 'lat': 40.799168, 'lon': -74.415833, 'country': 'United States', 'alt': 187}"
1730284745,"{'name': 'Morristown Regional Airport', 'iata': 'MOR', 'icao': 'KMOR', 'lat': 36.180321, 'lon': -83.375557, 'country': 'United States', 'alt': 1313}"
1730284745,"{'name': 'Morrisville Stowe State Airport', 'iata': 'MVL', 'icao': 'KMVL', 'lat': 44.537231, 'lon': -72.614136, 'country': 'United States', 'alt': 732}"
1730284745,"{'name': 'Moruya Airport', 'iata': 'MYA', 'icao': 'YMRY', 'lat': -35.897701, 'lon': 150.144394, 'country': 'Australia', 'alt': 14}"
1730284745,"{'name': 'Morwell Latrobe Regional Airport', 'iata': 'TGN', 'icao': 'YLTV', 'lat': -38.207199, 'lon': 146.470001, 'country': 'Australia', 'alt': 180}"
1730284745,"{'name': 'Mosby Midwest National Air Center Airport', 'iata': 'QTH', 'icao': 'KGPH', 'lat': 39.332706, 'lon': -94.309555, 'country': 'United States', 'alt': 774}"
1730284745,"{'name': 'Moscow Chkalovskiy Airport', 'iata': 'CKL', 'icao': 'UUMU', 'lat': 55.8783, 'lon': 38.061699, 'country': 'Russia', 'alt': 499}"
1730284745,"{'name': 'Moscow Domodedovo International Airport', 'iata': 'DME', 'icao': 'UUDD', 'lat': 55.408779, 'lon': 37.906311, 'country': 'Russia', 'alt': 588}"
1730284745,"{'name': 'Moscow Ostafyevo International Airport', 'iata': 'OSF', 'icao': 'UUMO', 'lat': 55.5075, 'lon': 37.502499, 'country': 'Russia', 'alt': 545}"
1730284745,"{'name': 'Moscow Sheremetyevo International Airport', 'iata': 'SVO', 'icao': 'UUEE', 'lat': 55.972641, 'lon': 37.414581, 'country': 'Russia', 'alt': 622}"
1730284745,"{'name': 'Moscow Vnukovo International Airport', 'iata': 'VKO', 'icao': 'UUWW', 'lat': 55.59153, 'lon': 37.261478, 'country': 'Russia', 'alt': 685}"
1730284745,"{'name': 'Moscow Zhukovsky Airport', 'iata': 'ZIA', 'icao': 'UUBW', 'lat': 55.553333, 'lon': 38.151669, 'country': 'Russia', 'alt': 404}"
1730284745,"{'name': 'Moses Lake Grant County International Airport', 'iata': 'MWH', 'icao': 'KMWH', 'lat': 47.20858, 'lon': -119.319, 'country': 'United States', 'alt': 1189}"
1730284745,"{'name': 'Mosjoen Airport', 'iata': 'MJF', 'icao': 'ENMS', 'lat': 65.783989, 'lon': 13.21491, 'country': 'Norway', 'alt': 237}"
1730284745,"{'name': 'Mossoro Airport', 'iata': 'MVF', 'icao': 'SBMS', 'lat': -5.20192, 'lon': -37.3643, 'country': 'Brazil', 'alt': 76}"
1730284745,"{'name': 'Mostar International Airport', 'iata': 'OMO', 'icao': 'LQMO', 'lat': 43.282902, 'lon': 17.845869, 'country': 'Bosnia And Herzegovina', 'alt': 156}"
1730284745,"{'name': 'Moulins Montbeugny Airport', 'iata': 'XMU', 'icao': 'LFHY', 'lat': 46.534443, 'lon': 3.421667, 'country': 'France', 'alt': 915}"
1730284745,"{'name': 'Moultrie Municipal Airport', 'iata': 'MGR', 'icao': 'KMGR', 'lat': 31.069445, 'lon': -83.80278, 'country': 'United States', 'alt': 294}"
1730284745,"{'name': 'Mount Gambier Airport', 'iata': 'MGB', 'icao': 'YMTG', 'lat': -37.740002, 'lon': 140.779999, 'country': 'Australia', 'alt': 212}"
1730284745,"{'name': 'Mount Hagen Airport', 'iata': 'HGU', 'icao': 'AYMH', 'lat': -5.82678, 'lon': 144.295807, 'country': 'Papua New Guinea', 'alt': 5388}"
1730284745,"{'name': 'Mount Holland Airport', 'iata': 'QBH', 'icao': 'YMHL', 'lat': -32.109432, 'lon': 119.760208, 'country': 'Australia', 'alt': 1457}"
1730284745,"{'name': 'Mount Holly South Jersey Regional Airport', 'iata': 'LLY', 'icao': 'KVAY', 'lat': 39.94278, 'lon': -74.845833, 'country': 'United States', 'alt': 53}"
1730284745,"{'name': 'Mount Hotham Airport', 'iata': 'MHU', 'icao': 'YHOT', 'lat': -37.047623, 'lon': 147.334106, 'country': 'Australia', 'alt': 4251}"
1730284745,"{'name': 'Mount Isa Airport', 'iata': 'ISA', 'icao': 'YBMA', 'lat': -20.663799, 'lon': 139.488602, 'country': 'Australia', 'alt': 1121}"
1730284745,"{'name': 'Mount Keith Airport', 'iata': 'WME', 'icao': 'YMNE', 'lat': -27.2864, 'lon': 120.555, 'country': 'Australia', 'alt': 1792}"
1730284745,"{'name': 'Mount Magnet Airport', 'iata': 'MMG', 'icao': 'YMOG', 'lat': -28.110001, 'lon': 117.839996, 'country': 'Australia', 'alt': 1354}"
1730284745,"{'name': 'Mount Pleasant Airport', 'iata': 'MPN', 'icao': 'EGYP', 'lat': -51.822701, 'lon': -58.447201, 'country': 'Falkland Islands (Malvinas)', 'alt': 244}"
1730284745,"{'name': 'Mount Pleasant Municipal Airport', 'iata': 'MOP', 'icao': 'KMOP', 'lat': 43.621422, 'lon': -84.735214, 'country': 'United States', 'alt': 750}"
1730284745,"{'name': 'Mount Pocono Municipal Airport', 'iata': 'MPO', 'icao': 'KMPO', 'lat': 41.133331, 'lon': -75.366669, 'country': 'United States', 'alt': 1916}"
1730284745,"{'name': 'Mount Vernon Airport', 'iata': 'MVN', 'icao': 'KMVN', 'lat': 38.323055, 'lon': -88.858612, 'country': 'United States', 'alt': 466}"
1730284745,"{'name': 'Mountain Home Ozark Regional Airport', 'iata': 'WMH', 'icao': 'KBPK', 'lat': 36.3689, 'lon': -92.470497, 'country': 'United States', 'alt': 928}"
1730284745,"{'name': 'Mountain View Moffett Federal Airfield', 'iata': 'NUQ', 'icao': 'KNUQ', 'lat': 37.416176, 'lon': -122.048019, 'country': 'United States', 'alt': 13}"
1730284745,"{'name': 'Mountain Village Airport', 'iata': 'MOU', 'icao': 'PAMO', 'lat': 62.095402, 'lon': -163.682007, 'country': 'United States', 'alt': 337}"
1730284745,"{'name': 'Mpanda Airport', 'iata': 'NPY', 'icao': 'HTMP', 'lat': -6.355285, 'lon': 31.084045, 'country': 'Tanzania', 'alt': 3562}"
1730284745,"{'name': 'Mthatha Airport', 'iata': 'UTT', 'icao': 'FAUT', 'lat': -31.547899, 'lon': 28.67428, 'country': 'South Africa', 'alt': 2400}"
1730284745,"{'name': 'Mtwara Airport', 'iata': 'MYW', 'icao': 'HTMT', 'lat': -10.339, 'lon': 40.181782, 'country': 'Tanzania', 'alt': 371}"
1730284745,"{'name': 'Muan International Airport', 'iata': 'MWX', 'icao': 'RKJB', 'lat': 34.991379, 'lon': 126.382698, 'country': 'South Korea', 'alt': 51}"
1730284745,"{'name': 'Muang Xay Oudomsay Airport', 'iata': 'ODY', 'icao': 'VLOS', 'lat': 20.681999, 'lon': 101.993103, 'country': 'Laos', 'alt': 1804}"
1730284745,"{'name': 'Muara Bungo Airport', 'iata': 'BUU', 'icao': 'WIJB', 'lat': -1.5425, 'lon': 102.182777, 'country': 'Indonesia', 'alt': '-1'}"
1730284745,"{'name': 'Muara Teweh Haji Muhammad Sidik Airport', 'iata': 'HMS', 'icao': 'WAGB', 'lat': -1.025762, 'lon': 114.928772, 'country': 'Indonesia', 'alt': 160}"
1730284745,"{'name': 'Mudanjiang Hailang Airport', 'iata': 'MDG', 'icao': 'ZYMD', 'lat': 44.52, 'lon': 129.559998, 'country': 'China', 'alt': '-1'}"
1730284745,"{'name': 'Mudgee Airport', 'iata': 'DGE', 'icao': 'YMDG', 'lat': -32.5625, 'lon': 149.610992, 'country': 'Australia', 'alt': 1545}"
1730284745,"{'name': 'Mukah Airport', 'iata': 'MKM', 'icao': 'WBGK', 'lat': 2.906944, 'lon': 112.074997, 'country': 'Malaysia', 'alt': 13}"
1730284745,"{'name': 'Mukalla Riyan Airport', 'iata': 'RIY', 'icao': 'OYRN', 'lat': 14.66263, 'lon': 49.375019, 'country': 'Yemen', 'alt': 54}"
1730284745,"{'name': 'Mullewa Airport', 'iata': 'MXU', 'icao': 'YMWA', 'lat': -28.474056, 'lon': 115.517426, 'country': 'Australia', 'alt': 842}"
1730284745,"{'name': 'Multan International Airport', 'iata': 'MUX', 'icao': 'OPMT', 'lat': 30.20322, 'lon': 71.419113, 'country': 'Pakistan', 'alt': 403}"
1730284745,"{'name': 'Mulu Airport', 'iata': 'MZV', 'icao': 'WBMU', 'lat': 4.05, 'lon': 114.800003, 'country': 'Malaysia', 'alt': '-1'}"
1730284745,"{'name': 'Mumbai Chhatrapati Shivaji International Airport', 'iata': 'BOM', 'icao': 'VABB', 'lat': 19.08868, 'lon': 72.867912, 'country': 'India', 'alt': 37}"
1730284745,"{'name': 'Muncie Delaware County Airport', 'iata': 'MIE', 'icao': 'KMIE', 'lat': 40.239723, 'lon': -85.394447, 'country': 'United States', 'alt': 937}"
1730284745,"{'name': 'Munda Airport', 'iata': 'MUA', 'icao': 'AGGM', 'lat': -8.32796, 'lon': 157.263, 'country': 'Solomon Islands', 'alt': 10}"
1730284745,"{'name': 'Mungalalu Truscott Airport', 'iata': 'TTX', 'icao': 'YTST', 'lat': -14.089722, 'lon': 126.380836, 'country': 'Australia', 'alt': 181}"
1730284745,"{'name': 'Mungeranie Airport', 'iata': 'MNE', 'icao': 'YMUG', 'lat': -28.008858, 'lon': 138.656876, 'country': 'Australia', 'alt': 192}"
1730284745,"{'name': 'Munich Airport', 'iata': 'MUC', 'icao': 'EDDM', 'lat': 48.353779, 'lon': 11.78608, 'country': 'Germany', 'alt': 1487}"
1730284745,"{'name': 'Munster Osnabruck International Airport', 'iata': 'FMO', 'icao': 'EDDG', 'lat': 52.13464, 'lon': 7.684831, 'country': 'Germany', 'alt': 160}"
1730284745,"{'name': 'Munster Telgte Airport', 'iata': 'QCT', 'icao': 'EDLT', 'lat': 51.944511, 'lon': 7.774341, 'country': 'Germany', 'alt': 179}"
1730284745,"{'name': 'Murcia Corvera International Airport', 'iata': 'RMU', 'icao': 'LEMI', 'lat': 37.803268, 'lon': -1.124536, 'country': 'Spain', 'alt': 638}"
1730284745,"{'name': 'Murfreesboro Municipal Airport', 'iata': 'QSM', 'icao': 'KMBT', 'lat': 35.877914, 'lon': -86.377502, 'country': 'United States', 'alt': 604}"
1730284745,"{'name': 'Murmansk Airport', 'iata': 'MMK', 'icao': 'ULMM', 'lat': 68.78167, 'lon': 32.75082, 'country': 'Russia', 'alt': 266}"
1730284745,"{'name': 'Murray Calloway County Airport', 'iata': 'CEY', 'icao': 'KCEY', 'lat': 36.664616, 'lon': -88.372742, 'country': 'United States', 'alt': 563}"
1730284745,"{'name': 'Murray Island Airport', 'iata': 'MYI', 'icao': 'YMUI', 'lat': -9.91667, 'lon': 144.054993, 'country': 'Australia', 'alt': '-1'}"
1730284745,"{'name': 'Murrin Murrin Airport', 'iata': 'WUI', 'icao': 'YMMI', 'lat': -28.704733, 'lon': 121.890511, 'country': 'Australia', 'alt': 1542}"
1730284745,"{'name': 'Mus Airport', 'iata': 'MSR', 'icao': 'LTCK', 'lat': 38.747761, 'lon': 41.661228, 'country': 'Turkey', 'alt': 4157}"
1730284745,"{'name': 'Muscat International Airport', 'iata': 'MCT', 'icao': 'OOMS', 'lat': 23.593269, 'lon': 58.284439, 'country': 'Oman', 'alt': 48}"
1730284745,"{'name': 'Muscatine Municipal Airport', 'iata': 'MUT', 'icao': 'KMUT', 'lat': 41.366669, 'lon': -91.144997, 'country': 'United States', 'alt': 548}"
1730284745,"{'name': 'Muscle Shoals Northwest Alabama Regional Airport', 'iata': 'MSL', 'icao': 'KMSL', 'lat': 34.740002, 'lon': -87.610001, 'country': 'United States', 'alt': 550}"
1730284745,"{'name': 'Muskegon County Airport', 'iata': 'MKG', 'icao': 'KMKG', 'lat': 43.169479, 'lon': -86.238197, 'country': 'United States', 'alt': 629}"
1730284745,"{'name': 'Muskogee Davis Field Airport', 'iata': 'MKO', 'icao': 'KMKO', 'lat': 35.653721, 'lon': -95.358253, 'country': 'United States', 'alt': 592}"
1730284745,"{'name': 'Muskoka Airport', 'iata': 'YQA', 'icao': 'CYQA', 'lat': 44.97472, 'lon': -79.303299, 'country': 'Canada', 'alt': 925}"
1730284745,"{'name': 'Muskrat Dam Airport', 'iata': 'MSA', 'icao': 'CZMD', 'lat': 53.816666, 'lon': -91.98333, 'country': 'Canada', 'alt': 911}"
1730284745,"{'name': 'Musoma Airport', 'iata': 'MUZ', 'icao': 'HTMU', 'lat': -1.5025, 'lon': 33.801941, 'country': 'Tanzania', 'alt': 3806}"
1730284745,"{'name': 'Mustique Airport', 'iata': 'MQS', 'icao': 'TVSM', 'lat': 12.88794, 'lon': -61.180099, 'country': 'Saint Vincent And The Grenadines', 'alt': 10}"
1730284745,"{'name': 'Muynak Airport', 'iata': 'MOK', 'icao': 'UTNM', 'lat': 43.754902, 'lon': 59.03178, 'country': 'Uzbekistan', 'alt': 171}"
1730284745,"{'name': 'Mwanza Airport', 'iata': 'MWZ', 'icao': 'HTMW', 'lat': -2.44448, 'lon': 32.932659, 'country': 'Tanzania', 'alt': 3763}"
1730284745,"{'name': 'Myeik Airport', 'iata': 'MGZ', 'icao': 'VYME', 'lat': 12.43979, 'lon': 98.621468, 'country': 'Myanmar (Burma)', 'alt': 75}"
1730284745,"{'name': 'Myitkyina Airport', 'iata': 'MYT', 'icao': 'VYMK', 'lat': 25.382835, 'lon': 97.352791, 'country': 'Myanmar (Burma)', 'alt': 464}"
1730284745,"{'name': 'Mykolaiv International Airport', 'iata': 'NLV', 'icao': 'UKON', 'lat': 47.057899, 'lon': 31.9198, 'country': 'Ukraine', 'alt': 184}"
1730284745,"{'name': 'Mykonos Island National Airport', 'iata': 'JMK', 'icao': 'LGMK', 'lat': 37.43512, 'lon': 25.348101, 'country': 'Greece', 'alt': 405}"
1730284745,"{'name': 'Myrtle Beach International Airport', 'iata': 'MYR', 'icao': 'KMYR', 'lat': 33.679749, 'lon': -78.928299, 'country': 'United States', 'alt': 25}"
1730284745,"{'name': 'Mysore Airport', 'iata': 'MYQ', 'icao': 'VOMY', 'lat': 12.229991, 'lon': 76.653, 'country': 'India', 'alt': 2384}"
1730284745,"{'name': 'Mytilene International Airport', 'iata': 'MJT', 'icao': 'LGMT', 'lat': 39.057144, 'lon': 26.599037, 'country': 'Greece', 'alt': 29}"
1730284745,"{'name': ""N'Djamena International Airport"", 'iata': 'NDJ', 'icao': 'FTTJ', 'lat': 12.13368, 'lon': 15.03401, 'country': 'Chad', 'alt': 968}"
1730284745,"{'name': 'Naberezhnye Chelny Begishevo Airport', 'iata': 'NBC', 'icao': 'UWKE', 'lat': 55.564125, 'lon': 52.103409, 'country': 'Russia', 'alt': 643}"
1730284745,"{'name': 'Nabire Airport', 'iata': 'NBX', 'icao': 'WABI', 'lat': -3.36818, 'lon': 135.496399, 'country': 'Indonesia', 'alt': 20}"
1730284745,"{'name': 'Nacala Airport', 'iata': 'MNC', 'icao': 'FQNC', 'lat': -14.4882, 'lon': 40.71225, 'country': 'Mozambique', 'alt': 410}"
1730284745,"{'name': 'Nacogdoches Airport', 'iata': 'OCH', 'icao': 'KOCH', 'lat': 31.578176, 'lon': -94.709999, 'country': 'United States', 'alt': 344}"
1730284745,"{'name': 'Nadi International Airport', 'iata': 'NAN', 'icao': 'NFFN', 'lat': -17.755301, 'lon': 177.443298, 'country': 'Fiji', 'alt': 59}"
1730284745,"{'name': 'Nador International Airport', 'iata': 'NDR', 'icao': 'GMMW', 'lat': 34.988888, 'lon': -3.028333, 'country': 'Morocco', 'alt': 574}"
1730284745,"{'name': 'Nadym Airport', 'iata': 'NYM', 'icao': 'USMM', 'lat': 65.481659, 'lon': 72.698883, 'country': 'Russia', 'alt': 49}"
1730284745,"{'name': 'Naga Airport', 'iata': 'WNP', 'icao': 'RPUN', 'lat': 13.587222, 'lon': 123.269997, 'country': 'Philippines', 'alt': 142}"
1730284745,"{'name': 'Nagasaki Airport', 'iata': 'NGS', 'icao': 'RJFU', 'lat': 32.916939, 'lon': 129.913605, 'country': 'Japan', 'alt': 15}"
1730284745,"{'name': 'Nagoya Chubu Centrair International Airport', 'iata': 'NGO', 'icao': 'RJGG', 'lat': 34.85841, 'lon': 136.805405, 'country': 'Japan', 'alt': 15}"
1730284745,"{'name': 'Nagoya Komaki Airport', 'iata': 'NKM', 'icao': 'RJNA', 'lat': 35.255501, 'lon': 136.924423, 'country': 'Japan', 'alt': 49}"
1730284745,"{'name': 'Nagpur Dr. Babasaheb Ambedkar International Airport', 'iata': 'NAG', 'icao': 'VANP', 'lat': 21.09219, 'lon': 79.04718, 'country': 'India', 'alt': 1033}"
1730284745,"{'name': 'Nain Airport', 'iata': 'YDP', 'icao': 'CYDP', 'lat': 56.548573, 'lon': -61.685467, 'country': 'Canada', 'alt': 60}"
1730284745,"{'name': 'Nairobi Jomo Kenyatta International Airport', 'iata': 'NBO', 'icao': 'HKJK', 'lat': -1.31924, 'lon': 36.927769, 'country': 'Kenya', 'alt': 5330}"
1730284745,"{'name': 'Nairobi Wilson Airport', 'iata': 'WIL', 'icao': 'HKNW', 'lat': -1.32171, 'lon': 36.814831, 'country': 'Kenya', 'alt': 5546}"
1730284745,"{'name': 'Najran Domestic Airport', 'iata': 'EAM', 'icao': 'OENG', 'lat': 17.611429, 'lon': 44.419159, 'country': 'Saudi Arabia', 'alt': 3982}"
1730284745,"{'name': 'Nakashibetsu Airport', 'iata': 'SHB', 'icao': 'RJCN', 'lat': 43.577499, 'lon': 144.960007, 'country': 'Japan', 'alt': 234}"
1730284745,"{'name': 'Nakhchivan International Airport', 'iata': 'NAJ', 'icao': 'UBBN', 'lat': 39.18861, 'lon': 45.458332, 'country': 'Azerbaijan', 'alt': 2863}"
1730284745,"{'name': 'Nakhon Phanom Airport', 'iata': 'KOP', 'icao': 'VTUW', 'lat': 17.383789, 'lon': 104.642998, 'country': 'Thailand', 'alt': 587}"
1730284745,"{'name': 'Nakhon Ratchasima Airport', 'iata': 'NAK', 'icao': 'VTUQ', 'lat': 14.94949, 'lon': 102.312698, 'country': 'Thailand', 'alt': 765}"
1730284745,"{'name': 'Nakhon Si Thammarat Airport', 'iata': 'NST', 'icao': 'VTSF', 'lat': 8.539444, 'lon': 99.944725, 'country': 'Thailand', 'alt': 13}"
1730284745,"{'name': 'Nalchik Airport', 'iata': 'NAL', 'icao': 'URMN', 'lat': 43.513332, 'lon': 43.638332, 'country': 'Russia', 'alt': 1460}"
1730284745,"{'name': 'Namangan Airport', 'iata': 'NMA', 'icao': 'UTFN', 'lat': 40.98457, 'lon': 71.55674, 'country': 'Uzbekistan', 'alt': 1555}"
1730284745,"{'name': 'Namibe Welwitschia Mirabilis Airport', 'iata': 'MSZ', 'icao': 'FNMO', 'lat': -15.261233, 'lon': 12.147095, 'country': 'Angola', 'alt': 225}"
1730284745,"{'name': 'Namlea Airport', 'iata': 'NAM', 'icao': 'WAPR', 'lat': -3.236448, 'lon': 127.10006, 'country': 'Indonesia', 'alt': 78}"
1730284745,"{'name': 'Nampula Airport', 'iata': 'APL', 'icao': 'FQNP', 'lat': -15.1056, 'lon': 39.281799, 'country': 'Mozambique', 'alt': 1444}"
1730284745,"{'name': 'Namrole Airport', 'iata': 'NRE', 'icao': 'WAPG', 'lat': -3.8548, 'lon': 126.701202, 'country': 'Indonesia', 'alt': 31}"
1730284745,"{'name': 'Namsos Airport', 'iata': 'OSY', 'icao': 'ENNM', 'lat': 64.472092, 'lon': 11.577442, 'country': 'Norway', 'alt': 6}"
1730284745,"{'name': 'Nan Airport', 'iata': 'NNT', 'icao': 'VTCN', 'lat': 18.799999, 'lon': 100.783333, 'country': 'Thailand', 'alt': 702}"
1730284745,"{'name': 'Nanaimo Airport', 'iata': 'YCD', 'icao': 'CYCD', 'lat': 49.054443, 'lon': -123.870003, 'country': 'Canada', 'alt': 92}"
1730284745,"{'name': 'Nanaimo Harbour Seaplane Base', 'iata': 'ZNA', 'icao': 'CAC8', 'lat': 49.169918, 'lon': -123.934952, 'country': 'Canada', 'alt': '-1'}"
1730284745,"{'name': 'Nanchang Changbei International Airport', 'iata': 'KHN', 'icao': 'ZSCN', 'lat': 28.865, 'lon': 115.900002, 'country': 'China', 'alt': 143}"
1730284745,"{'name': 'Nanchong Gaoping Airport', 'iata': 'NAO', 'icao': 'ZUNC', 'lat': 30.793888, 'lon': 106.159721, 'country': 'China', 'alt': 5906}"
1730284745,"{'name': 'Nancy Essey Airport', 'iata': 'ENC', 'icao': 'LFSN', 'lat': 48.692081, 'lon': 6.22605, 'country': 'France', 'alt': 751}"
1730284745,"{'name': 'Nanded Airport', 'iata': 'NDC', 'icao': 'VAND', 'lat': 19.18194, 'lon': 77.318611, 'country': 'India', 'alt': 1250}"
1730284745,"{'name': 'Nanjing Lukou International Airport', 'iata': 'NKG', 'icao': 'ZSNJ', 'lat': 31.742041, 'lon': 118.862, 'country': 'China', 'alt': 49}"
1730284745,"{'name': 'Nanki Shirahama Airport', 'iata': 'SHM', 'icao': 'RJBD', 'lat': 33.66222, 'lon': 135.364395, 'country': 'Japan', 'alt': 298}"
1730284745,"{'name': 'Nanning Wuxu International Airport', 'iata': 'NNG', 'icao': 'ZGNN', 'lat': 22.608259, 'lon': 108.172401, 'country': 'China', 'alt': 421}"
1730284745,"{'name': 'Nantes Atlantique Airport', 'iata': 'NTE', 'icao': 'LFRS', 'lat': 47.15694, 'lon': -1.60777, 'country': 'France', 'alt': 90}"
1730284745,"{'name': 'Nantong Xingdong Airport', 'iata': 'NTG', 'icao': 'ZSNT', 'lat': 32.072922, 'lon': 120.975601, 'country': 'China', 'alt': 7546}"
1730284745,"{'name': 'Nantucket Memorial Airport', 'iata': 'ACK', 'icao': 'KACK', 'lat': 41.253052, 'lon': -70.060097, 'country': 'United States', 'alt': 47}"
1730284745,"{'name': 'Nanyang Jiangying Airport', 'iata': 'NNY', 'icao': 'ZHNY', 'lat': 32.98, 'lon': 112.610001, 'country': 'China', 'alt': 131}"
1730284745,"{'name': 'Nanyuki Airport', 'iata': 'NYK', 'icao': 'HKNY', 'lat': -0.067, 'lon': 37.033001, 'country': 'Kenya', 'alt': 6250}"
1730284745,"{'name': 'Napa County Airport', 'iata': 'APC', 'icao': 'KAPC', 'lat': 38.212223, 'lon': -122.279999, 'country': 'United States', 'alt': 33}"
1730284745,"{'name': 'Napakiak Airport', 'iata': 'WNA', 'icao': 'PANA', 'lat': 60.6903, 'lon': -161.979004, 'country': 'United States', 'alt': 17}"
1730284745,"{'name': 'Napaskiak Airport', 'iata': 'PKA', 'icao': 'PAPK', 'lat': 60.7029, 'lon': -161.778, 'country': 'United States', 'alt': 24}"
1730284745,"{'name': ""Napier Hawke's Bay Airport"", 'iata': 'NPE', 'icao': 'NZNR', 'lat': -39.468254, 'lon': 176.867371, 'country': 'New Zealand', 'alt': 3}"
1730284745,"{'name': 'Naples Airport', 'iata': 'NAP', 'icao': 'LIRN', 'lat': 40.886028, 'lon': 14.29078, 'country': 'Italy', 'alt': 294}"
1730284745,"{'name': 'Naples Municipal Airport', 'iata': 'APF', 'icao': 'KAPF', 'lat': 26.152201, 'lon': -81.775703, 'country': 'United States', 'alt': 8}"
1730284745,"{'name': 'Napuka Airport', 'iata': 'NAU', 'icao': 'NTGN', 'lat': -14.1767, 'lon': -141.266998, 'country': 'French Polynesia', 'alt': 7}"
1730284745,"{'name': 'Naracoorte Airport', 'iata': 'NAC', 'icao': 'YNRC', 'lat': -36.985298, 'lon': 140.725006, 'country': 'Australia', 'alt': 169}"
1730284745,"{'name': 'Narathiwat Airport', 'iata': 'NAW', 'icao': 'VTSC', 'lat': 6.519922, 'lon': 101.743401, 'country': 'Thailand', 'alt': 16}"
1730284745,"{'name': 'Narrabri Airport', 'iata': 'NAA', 'icao': 'YNBR', 'lat': -30.318291, 'lon': 149.829117, 'country': 'Australia', 'alt': 788}"
1730284745,"{'name': 'Narrandera Airport', 'iata': 'NRA', 'icao': 'YNAR', 'lat': -34.702221, 'lon': 146.512222, 'country': 'Australia', 'alt': 474}"
1730284745,"{'name': 'Narsarsuaq Airport', 'iata': 'UAK', 'icao': 'BGBW', 'lat': 61.160709, 'lon': -45.425598, 'country': 'Greenland', 'alt': 112}"
1730284745,"{'name': 'Naryan-Mar Airport', 'iata': 'NNM', 'icao': 'ULAM', 'lat': 67.639999, 'lon': 53.121941, 'country': 'Russia', 'alt': 36}"
1730284745,"{'name': 'NASA Shuttle Landing Facility', 'iata': 'QQS', 'icao': 'KTTS', 'lat': 28.615, 'lon': -80.694504, 'country': 'United States', 'alt': 10}"
1730284745,"{'name': 'Nashik Ozar Airport', 'iata': 'ISK', 'icao': 'VAOZ', 'lat': 20.119444, 'lon': 73.913612, 'country': 'India', 'alt': 1900}"
1730284745,"{'name': 'Nashua Airport', 'iata': 'ASH', 'icao': 'KASH', 'lat': 42.778889, 'lon': -71.509445, 'country': 'United States', 'alt': 200}"
1730284745,"{'name': 'Nashville International Airport', 'iata': 'BNA', 'icao': 'KBNA', 'lat': 36.12447, 'lon': -86.678101, 'country': 'United States', 'alt': 599}"
1730284745,"{'name': 'Nashville John C. Tune Airport', 'iata': 'QQN', 'icao': 'KJWN', 'lat': 36.18222, 'lon': -86.886665, 'country': 'United States', 'alt': 495}"
1730284745,"{'name': 'Nassau Lynden Pindling International Airport', 'iata': 'NAS', 'icao': 'MYNN', 'lat': 25.04105, 'lon': -77.463669, 'country': 'Bahamas', 'alt': 16}"
1730284745,"{'name': 'Natal International Airport', 'iata': 'NAT', 'icao': 'SBSG', 'lat': -5.768056, 'lon': -35.37611, 'country': 'Brazil', 'alt': 169}"
1730284745,"{'name': 'Natashquan Airport', 'iata': 'YNA', 'icao': 'CYNA', 'lat': 50.189999, 'lon': -61.789101, 'country': 'Canada', 'alt': 39}"
1730284745,"{'name': 'Natchez Adams County Airport', 'iata': 'HEZ', 'icao': 'KHEZ', 'lat': 31.614721, 'lon': -91.296387, 'country': 'United States', 'alt': 272}"
1730284745,"{'name': 'Natuashish Airport', 'iata': 'YNP', 'icao': 'CNH2', 'lat': 55.913891, 'lon': -61.184444, 'country': 'Canada', 'alt': 33}"
1730284745,"{'name': 'Naujaat Airport', 'iata': 'YUT', 'icao': 'CYUT', 'lat': 66.521378, 'lon': -86.224701, 'country': 'Canada', 'alt': 75}"
1730284745,"{'name': 'Nauru International Airport', 'iata': 'INU', 'icao': 'ANYN', 'lat': -0.54745, 'lon': 166.919098, 'country': 'Nauru', 'alt': 22}"
1730284745,"{'name': 'Nausori International Airport', 'iata': 'SUV', 'icao': 'NFNA', 'lat': -18.0432, 'lon': 178.559204, 'country': 'Fiji', 'alt': 17}"
1730284745,"{'name': 'Navegantes Victor Konder International Airport', 'iata': 'NVT', 'icao': 'SBNF', 'lat': -26.87904, 'lon': -48.650291, 'country': 'Brazil', 'alt': 19}"
1730284745,"{'name': 'Navoi International Airport', 'iata': 'NVI', 'icao': 'UTSA', 'lat': 40.117771, 'lon': 65.175003, 'country': 'Uzbekistan', 'alt': 98}"
1730284745,"{'name': 'Naxos Island National Airport', 'iata': 'JNX', 'icao': 'LGNX', 'lat': 37.080551, 'lon': 25.36805, 'country': 'Greece', 'alt': 10}"
1730284745,"{'name': 'Naypyidaw Airport', 'iata': 'NYT', 'icao': 'VYNT', 'lat': 19.622499, 'lon': 96.201385, 'country': 'Myanmar (Burma)', 'alt': 298}"
1730284745,"{'name': 'Nazca Maria Reiche Neuman Airport', 'iata': 'NZC', 'icao': 'SPZA', 'lat': -14.854167, 'lon': -74.961777, 'country': 'Peru', 'alt': 1860}"
1730284745,"{'name': 'Ndola Simon Mwansa Kapwepwe International Airport', 'iata': 'NLA', 'icao': 'FLSK', 'lat': -12.961792, 'lon': 28.517223, 'country': 'Zambia', 'alt': 4308}"
1730284745,"{'name': 'Neiva Benito Salas Airport', 'iata': 'NVA', 'icao': 'SKNV', 'lat': 2.950422, 'lon': -75.2939, 'country': 'Colombia', 'alt': 1464}"
1730284745,"{'name': 'Nelson Airport', 'iata': 'NSN', 'icao': 'NZNS', 'lat': -41.297062, 'lon': 173.223969, 'country': 'New Zealand', 'alt': 3}"
1730284745,"{'name': 'Nelspruit Airport', 'iata': 'NLP', 'icao': 'FANS', 'lat': -25.5007, 'lon': 30.913469, 'country': 'South Africa', 'alt': 2901}"
1730284745,"{'name': 'Nelspruit Kruger Mpumalanga International Airport', 'iata': 'MQP', 'icao': 'FAKN', 'lat': -25.383101, 'lon': 31.1056, 'country': 'South Africa', 'alt': 2829}"
1730284745,"{'name': 'Nemiscau Airport', 'iata': 'YNS', 'icao': 'CYHH', 'lat': 51.691101, 'lon': -76.135597, 'country': 'Canada', 'alt': 804}"
1730284745,"{'name': 'Neom Bay Airport', 'iata': 'NUM', 'icao': 'OENN', 'lat': 27.917212, 'lon': 35.294044, 'country': 'Saudi Arabia', 'alt': 33}"
1730284745,"{'name': 'Nepalgunj Airport', 'iata': 'KEP', 'icao': 'VNNG', 'lat': 28.103611, 'lon': 81.666946, 'country': 'Nepal', 'alt': 540}"
1730284745,"{'name': 'Nerlerit Inaat Airport', 'iata': 'CNP', 'icao': 'BGCO', 'lat': 70.743332, 'lon': -22.6605, 'country': 'Greenland', 'alt': 45}"
1730284745,"{'name': 'Neubrandenburg Airport', 'iata': 'FNB', 'icao': 'EDBN', 'lat': 53.602238, 'lon': 13.305836, 'country': 'Germany', 'alt': 229}"
1730284745,"{'name': 'Neuhausen ob Eck Airport', 'iata': 'QEN', 'icao': 'EDSN', 'lat': 47.97662, 'lon': 8.905584, 'country': 'Germany', 'alt': 2628}"
1730284745,"{'name': 'Neumayer III Skiway', 'iata': 'QAN', 'icao': 'AT16', 'lat': -70.633331, 'lon': -8.263333, 'country': 'Antarctica', 'alt': 55}"
1730284745,"{'name': 'Neumunster Airport', 'iata': 'EUM', 'icao': 'EDHN', 'lat': 54.079445, 'lon': 9.941389, 'country': 'Germany', 'alt': 72}"
1730284745,"{'name': 'Neuquen Presidente Peron International Airport', 'iata': 'NQN', 'icao': 'SAZN', 'lat': -38.949001, 'lon': -68.155701, 'country': 'Argentina', 'alt': 895}"
1730284745,"{'name': 'Nevers Fourchambault Airport', 'iata': 'NVS', 'icao': 'LFQG', 'lat': 47.003731, 'lon': 3.110742, 'country': 'France', 'alt': 602}"
1730284745,"{'name': 'Nevis Newcastle International Airport', 'iata': 'NEV', 'icao': 'TKPN', 'lat': 17.205, 'lon': -62.592499, 'country': 'Saint Kitts And Nevis', 'alt': 13}"
1730284745,"{'name': 'Nevsehir Kapadokya Airport', 'iata': 'NAV', 'icao': 'LTAZ', 'lat': 38.772236, 'lon': 34.533512, 'country': 'Turkey', 'alt': 3091}"
1730284745,"{'name': 'New Bedford Regional Airport', 'iata': 'EWB', 'icao': 'KEWB', 'lat': 41.676945, 'lon': -70.959167, 'country': 'United States', 'alt': 80}"
1730284745,"{'name': 'New Bern Coastal Carolina Regional Airport', 'iata': 'EWN', 'icao': 'KEWN', 'lat': 35.072971, 'lon': -77.0429, 'country': 'United States', 'alt': 18}"
1730284745,"{'name': 'New Bight Airport', 'iata': 'TBI', 'icao': 'MYCB', 'lat': 24.315001, 'lon': -75.453613, 'country': 'Bahamas', 'alt': 14}"
1730284745,"{'name': 'New Braunfels Regional Airport', 'iata': 'QQZ', 'icao': 'KBAZ', 'lat': 29.703056, 'lon': -98.041115, 'country': 'United States', 'alt': 651}"
1730284745,"{'name': 'New Haven Tweed Airport', 'iata': 'HVN', 'icao': 'KHVN', 'lat': 41.263748, 'lon': -72.886803, 'country': 'United States', 'alt': 12}"
1730284745,"{'name': 'New Iberia Acadiana Regional Airport', 'iata': 'ARA', 'icao': 'KARA', 'lat': 30.03775, 'lon': -91.883797, 'country': 'United States', 'alt': 24}"
1730284745,"{'name': 'New London Groton Airport', 'iata': 'GON', 'icao': 'KGON', 'lat': 41.327633, 'lon': -72.0457, 'country': 'United States', 'alt': 6}"
1730284745,"{'name': 'New Orleans Lakefront Airport', 'iata': 'NEW', 'icao': 'KNEW', 'lat': 30.039444, 'lon': -90.026665, 'country': 'United States', 'alt': 9}"
1730284745,"{'name': 'New Orleans Louis Armstrong International Airport', 'iata': 'MSY', 'icao': 'KMSY', 'lat': 29.99338, 'lon': -90.258003, 'country': 'United States', 'alt': 3}"
1730284745,"{'name': 'New Plymouth Airport', 'iata': 'NPL', 'icao': 'NZNP', 'lat': -39.007812, 'lon': 174.177841, 'country': 'New Zealand', 'alt': 94}"
1730284745,"{'name': 'New Richmond Municipal Airport', 'iata': 'RNH', 'icao': 'KRNH', 'lat': 45.149738, 'lon': -92.539536, 'country': 'United States', 'alt': 989}"
1730284745,"{'name': 'New Smyrna Beach Municipal Airport', 'iata': 'QQB', 'icao': 'KEVB', 'lat': 29.055555, 'lon': -80.948891, 'country': 'United States', 'alt': 10}"
1730284745,"{'name': 'New Stuyahok Airport', 'iata': 'KNW', 'icao': 'PANW', 'lat': 59.452106, 'lon': -157.37384, 'country': 'United States', 'alt': 343}"
1730284745,"{'name': 'New York Downtown Manhattan Heliport', 'iata': 'JRB', 'icao': 'KJRB', 'lat': 40.70121, 'lon': -74.009003, 'country': 'United States', 'alt': 7}"
1730284745,"{'name': 'New York John F. Kennedy International Airport', 'iata': 'JFK', 'icao': 'KJFK', 'lat': 40.639751, 'lon': -73.7789, 'country': 'United States', 'alt': 14}"
1730284745,"{'name': 'New York LaGuardia Airport', 'iata': 'LGA', 'icao': 'KLGA', 'lat': 40.777248, 'lon': -73.872597, 'country': 'United States', 'alt': 21}"
1730284745,"{'name': 'New York Manhattan West 30th Street Heliport', 'iata': 'JRA', 'icao': 'KJRA', 'lat': 40.754875, 'lon': -74.007278, 'country': 'United States', 'alt': 1}"
1730284745,"{'name': 'New York Newark Liberty International Airport', 'iata': 'EWR', 'icao': 'KEWR', 'lat': 40.692501, 'lon': -74.168602, 'country': 'United States', 'alt': 18}"
1730284745,"{'name': 'New York Stewart International Airport', 'iata': 'SWF', 'icao': 'KSWF', 'lat': 41.504108, 'lon': -74.104797, 'country': 'United States', 'alt': 491}"
1730284745,"{'name': 'Newcastle Airport', 'iata': 'NCL', 'icao': 'EGNT', 'lat': 55.037498, 'lon': -1.69166, 'country': 'United Kingdom', 'alt': 266}"
1730284745,"{'name': 'Newcastle Airport', 'iata': 'NTL', 'icao': 'YWLM', 'lat': -32.794998, 'lon': 151.834396, 'country': 'Australia', 'alt': 31}"
1730284745,"{'name': 'Newcastle Lake Macquarie Airport', 'iata': 'BEO', 'icao': 'YLMQ', 'lat': -33.06591, 'lon': 151.646133, 'country': 'Australia', 'alt': 4}"
1730284745,"{'name': 'Newcastle Mondell Field Airport', 'iata': 'ECS', 'icao': 'KECS', 'lat': 43.884514, 'lon': -104.314651, 'country': 'United States', 'alt': 4151}"
1730284745,"{'name': 'Newman Airport', 'iata': 'ZNE', 'icao': 'YNWN', 'lat': -23.4177, 'lon': 119.802696, 'country': 'Australia', 'alt': 1724}"
1730284745,"{'name': 'Newport Municipal Airport', 'iata': 'ONP', 'icao': 'KONP', 'lat': 44.580276, 'lon': -124.057777, 'country': 'United States', 'alt': 160}"
1730284745,"{'name': 'Newport News Williamsburg International Airport', 'iata': 'PHF', 'icao': 'KPHF', 'lat': 37.131889, 'lon': -76.492897, 'country': 'United States', 'alt': 42}"
1730284745,"{'name': 'Newport State Airport', 'iata': 'NPT', 'icao': 'KUUU', 'lat': 41.532398, 'lon': -71.281502, 'country': 'United States', 'alt': 172}"
1730284745,"{'name': 'Newport State Airport', 'iata': 'EFK', 'icao': 'KEFK', 'lat': 44.889606, 'lon': -72.228043, 'country': 'United States', 'alt': 927}"
1730284745,"{'name': 'Newquay Cornwall Airport', 'iata': 'NQY', 'icao': 'EGHQ', 'lat': 50.440552, 'lon': -4.9954, 'country': 'United Kingdom', 'alt': 390}"
1730284745,"{'name': 'Newtok Airport', 'iata': 'WWT', 'icao': 'PAEW', 'lat': 60.939419, 'lon': -164.641541, 'country': 'United States', 'alt': 10}"
1730284745,"{'name': 'Newton City County Airport', 'iata': 'EWK', 'icao': 'KEWK', 'lat': 38.058201, 'lon': -97.274498, 'country': 'United States', 'alt': 1533}"
1730284745,"{'name': 'Newton Municipal Airport', 'iata': 'TNU', 'icao': 'KTNU', 'lat': 41.674442, 'lon': -93.021667, 'country': 'United States', 'alt': 953}"
1730284745,"{'name': 'Ngala Airport', 'iata': 'NGL', 'icao': 'FANG', 'lat': -24.390184, 'lon': 31.327129, 'country': 'South Africa', 'alt': 1457}"
1730284745,"{'name': 'Ngaoundere Airport', 'iata': 'NGE', 'icao': 'FKKN', 'lat': 7.357011, 'lon': 13.55924, 'country': 'Cameroon', 'alt': 3655}"
1730284745,"{'name': 'Ngukurr Airport', 'iata': 'RPM', 'icao': 'YNGU', 'lat': -14.723298, 'lon': 134.747406, 'country': 'Australia', 'alt': 40}"
1730284745,"{'name': 'Nha Trang Cam Ranh International Airport', 'iata': 'CXR', 'icao': 'VVCR', 'lat': 11.993611, 'lon': 109.224998, 'country': 'Vietnam', 'alt': 40}"
1730284745,"{'name': 'Niagara Falls International Airport', 'iata': 'IAG', 'icao': 'KIAG', 'lat': 43.10733, 'lon': -78.946098, 'country': 'United States', 'alt': 592}"
1730284745,"{'name': 'Niamey Diori Hamani International Airport', 'iata': 'NIM', 'icao': 'DRRN', 'lat': 13.48154, 'lon': 2.183614, 'country': 'Niger', 'alt': 732}"
1730284745,"{'name': 'Niau Airport', 'iata': 'NIU', 'icao': 'NTKN', 'lat': -16.121988, 'lon': -146.373245, 'country': 'French Polynesia', 'alt': 10}"
1730284745,"{'name': ""Nice Cote d'Azur Airport"", 'iata': 'NCE', 'icao': 'LFMN', 'lat': 43.661453, 'lon': 7.21736, 'country': 'France', 'alt': 12}"
1730284745,"{'name': 'Nicholson Airport', 'iata': 'NLS', 'icao': 'YNIC', 'lat': -18.052446, 'lon': 128.905746, 'country': 'Australia', 'alt': 1302}"
1730284745,"{'name': 'Nifty Airport', 'iata': 'NIF', 'icao': 'YCNF', 'lat': -21.6717, 'lon': 121.586998, 'country': 'Australia', 'alt': 295}"
1730284745,"{'name': 'Nightmute Airport', 'iata': 'NME', 'icao': 'PAGT', 'lat': 60.471046, 'lon': -164.700836, 'country': 'United States', 'alt': 14}"
1730284745,"{'name': 'Niigata Airport', 'iata': 'KIJ', 'icao': 'RJSN', 'lat': 37.955891, 'lon': 139.120697, 'country': 'Japan', 'alt': 29}"
1730284745,"{'name': 'Nikolayevsk-na-Amur Airport', 'iata': 'NLI', 'icao': 'UHNN', 'lat': 53.154167, 'lon': 140.651108, 'country': 'Russia', 'alt': 177}"
1730284745,"{'name': 'Nimes Ales Camargue Cevennes Airport', 'iata': 'FNI', 'icao': 'LFTW', 'lat': 43.7575, 'lon': 4.416389, 'country': 'France', 'alt': 309}"
1730284745,"{'name': 'Ningbo Lishe International Airport', 'iata': 'NGB', 'icao': 'ZSNB', 'lat': 29.826679, 'lon': 121.461899, 'country': 'China', 'alt': 13}"
1730284745,"{'name': 'Ninglang Luguhu Airport', 'iata': 'NLH', 'icao': 'ZPNL', 'lat': 27.542559, 'lon': 100.759323, 'country': 'China', 'alt': 10759}"
1730284745,"{'name': 'Niort Souche Airport', 'iata': 'NIT', 'icao': 'LFBN', 'lat': 46.313419, 'lon': -0.39443, 'country': 'France', 'alt': 201}"
1730284745,"{'name': 'Nis Constantine the Great Airport', 'iata': 'INI', 'icao': 'LYNI', 'lat': 43.33728, 'lon': 21.85372, 'country': 'Serbia', 'alt': 648}"
1730284745,"{'name': 'Niue International Airport', 'iata': 'IUE', 'icao': 'NIUE', 'lat': -19.08, 'lon': -169.925003, 'country': 'New Zealand', 'alt': 209}"
1730284745,"{'name': 'Nizhnevartovsk Airport', 'iata': 'NJC', 'icao': 'USNN', 'lat': 60.949268, 'lon': 76.483612, 'country': 'Russia', 'alt': 177}"
1730284745,"{'name': 'Nizhny Novgorod International Airport', 'iata': 'GOJ', 'icao': 'UWGG', 'lat': 56.23011, 'lon': 43.784039, 'country': 'Russia', 'alt': 256}"
1730284745,"{'name': 'Noatak Airport', 'iata': 'WTK', 'icao': 'PAWN', 'lat': 67.563057, 'lon': -162.984161, 'country': 'United States', 'alt': 88}"
1730284745,"{'name': 'Nogales International Airport', 'iata': 'OLS', 'icao': 'KOLS', 'lat': 31.417721, 'lon': -110.847, 'country': 'United States', 'alt': 3955}"
1730284745,"{'name': 'Nogales International Airport', 'iata': 'NOG', 'icao': 'MMNG', 'lat': 31.22718, 'lon': -110.977058, 'country': 'Mexico', 'alt': 4087}"
1730284745,"{'name': 'Nogaro Airport', 'iata': 'QFN', 'icao': 'LFCN', 'lat': 43.769726, 'lon': -0.035688, 'country': 'France', 'alt': 306}"
1730284745,"{'name': 'Nogliki Airport', 'iata': 'NGK', 'icao': 'UHSN', 'lat': 51.799999, 'lon': 143.166672, 'country': 'Russia', 'alt': 98}"
1730284745,"{'name': 'Nome Airport', 'iata': 'OME', 'icao': 'PAOM', 'lat': 64.512199, 'lon': -165.445007, 'country': 'United States', 'alt': 37}"
1730284745,"{'name': 'Noorvik Robert Curtis Memorial Airport', 'iata': 'ORV', 'icao': 'PFNO', 'lat': 66.817375, 'lon': -161.023102, 'country': 'United States', 'alt': 52}"
1730284745,"{'name': 'Noosaville Noosa Airport', 'iata': 'NSV', 'icao': 'YNSH', 'lat': -26.423244, 'lon': 153.065247, 'country': 'Australia', 'alt': 4}"
1730284745,"{'name': 'Norden Norddeich Airport', 'iata': 'NOD', 'icao': 'EDWS', 'lat': 53.633007, 'lon': 7.190385, 'country': 'Germany', 'alt': -6}"
1730284745,"{'name': 'Norderney Airport', 'iata': 'NRD', 'icao': 'EDWY', 'lat': 53.706821, 'lon': 7.230247, 'country': 'Germany', 'alt': 6}"
1730284745,"{'name': 'Nordfjordur Airport', 'iata': 'NOR', 'icao': 'BINF', 'lat': 65.131943, 'lon': -13.7463, 'country': 'Iceland', 'alt': 13}"
1730284745,"{'name': 'Norfolk International Airport', 'iata': 'ORF', 'icao': 'KORF', 'lat': 36.893753, 'lon': -76.200729, 'country': 'United States', 'alt': 25}"
1730284745,"{'name': 'Norfolk Island Airport', 'iata': 'NLK', 'icao': 'YSNF', 'lat': -29.041599, 'lon': 167.938705, 'country': 'Australia', 'alt': 371}"
1730284745,"{'name': 'Norfolk Regional Airport', 'iata': 'OFK', 'icao': 'KOFK', 'lat': 41.984165, 'lon': -97.434166, 'country': 'United States', 'alt': 1573}"
1730284745,"{'name': 'Norilsk Alykel Airport', 'iata': 'NSK', 'icao': 'UOOO', 'lat': 69.31105, 'lon': 87.332176, 'country': 'Russia', 'alt': 595}"
1730284745,"{'name': 'Norman University of Oklahoma Westheimer Airport', 'iata': 'OUN', 'icao': 'KOUN', 'lat': 35.241978, 'lon': -97.468529, 'country': 'United States', 'alt': 1182}"
1730284745,"{'name': 'Norman Wells Airport', 'iata': 'YVQ', 'icao': 'CYVQ', 'lat': 65.281609, 'lon': -126.797997, 'country': 'Canada', 'alt': 238}"
1730284745,"{'name': ""Norman's Cay Airport"", 'iata': 'NMC', 'icao': 'MYEN', 'lat': 24.594299, 'lon': -76.820198, 'country': 'Bahamas', 'alt': 8}"
1730284745,"{'name': 'Normanton Airport', 'iata': 'NTN', 'icao': 'YNTN', 'lat': -17.68, 'lon': 141.070007, 'country': 'Australia', 'alt': 73}"
1730284745,"{'name': 'Norrkoping Airport', 'iata': 'NRK', 'icao': 'ESSP', 'lat': 58.58625, 'lon': 16.25062, 'country': 'Sweden', 'alt': 32}"
1730284745,"{'name': 'Norrtalje Mellingeholms Airport', 'iata': 'QEM', 'icao': 'ESSN', 'lat': 59.733612, 'lon': 18.698334, 'country': 'Sweden', 'alt': 40}"
1730284745,"{'name': 'Norseman Airport', 'iata': 'NSM', 'icao': 'YNSM', 'lat': -32.202538, 'lon': 121.758263, 'country': 'Australia', 'alt': 878}"
1730284745,"{'name': 'North Bay Jack Garland Airport', 'iata': 'YYB', 'icao': 'CYYB', 'lat': 46.363609, 'lon': -79.422699, 'country': 'Canada', 'alt': 1215}"
1730284745,"{'name': 'North Bend Southwest Oregon Regional Airport', 'iata': 'OTH', 'icao': 'KOTH', 'lat': 43.418888, 'lon': -124.239998, 'country': 'United States', 'alt': 17}"
1730284745,"{'name': 'North Connel Oban Airport', 'iata': 'OBN', 'icao': 'EGEO', 'lat': 56.463501, 'lon': -5.39967, 'country': 'United Kingdom', 'alt': 20}"
1730284745,"{'name': 'North Eleuthera Airport', 'iata': 'ELH', 'icao': 'MYEH', 'lat': 25.474859, 'lon': -76.683403, 'country': 'Bahamas', 'alt': 27}"
1730284745,"{'name': 'North Kingstown Quonset State Airport', 'iata': 'NCO', 'icao': 'KOQU', 'lat': 41.59565, 'lon': -71.410355, 'country': 'United States', 'alt': 11}"
1730284745,"{'name': 'North Las Vegas Airport', 'iata': 'VGT', 'icao': 'KVGT', 'lat': 36.210171, 'lon': -115.190826, 'country': 'United States', 'alt': 2182}"
1730284745,"{'name': 'North Myrtle Beach Grand Strand Airport', 'iata': 'CRE', 'icao': 'KCRE', 'lat': 33.811699, 'lon': -78.7239, 'country': 'United States', 'alt': 32}"
1730284745,"{'name': 'North Platte Regional Airport', 'iata': 'LBF', 'icao': 'KLBF', 'lat': 41.126202, 'lon': -100.683601, 'country': 'United States', 'alt': 2777}"
1730284745,"{'name': 'North Pole Santa Airport', 'iata': 'XMS', 'icao': 'XXXX', 'lat': 83.699997, 'lon': -34.5, 'country': 'Greenland', 'alt': 10}"
1730284745,"{'name': 'North Ronaldsay Airport', 'iata': 'NRL', 'icao': 'EGEN', 'lat': 59.3675, 'lon': -2.434444, 'country': 'United Kingdom', 'alt': 56}"
1730284745,"{'name': 'North Spirit Lake Airport', 'iata': 'YNO', 'icao': 'CKQ3', 'lat': 52.490002, 'lon': -92.9711, 'country': 'Canada', 'alt': 1082}"
1730284745,"{'name': 'North Weald Airport', 'iata': 'QKN', 'icao': 'EGSX', 'lat': 51.721455, 'lon': 0.154339, 'country': 'United Kingdom', 'alt': 265}"
1730284745,"{'name': 'North Wilkesboro Wilkes County Airport', 'iata': 'IKB', 'icao': 'KUKF', 'lat': 36.222801, 'lon': -81.098297, 'country': 'United States', 'alt': 1301}"
1730284745,"{'name': 'Northampton Sywell Airport', 'iata': 'ORM', 'icao': 'EGBK', 'lat': 52.305302, 'lon': -0.793056, 'country': 'United Kingdom', 'alt': 429}"
1730284745,"{'name': 'Northeastern Regional Airport', 'iata': 'EDE', 'icao': 'KEDE', 'lat': 36.027699, 'lon': -76.567101, 'country': 'United States', 'alt': 20}"
1730284745,"{'name': 'Norway House Airport', 'iata': 'YNE', 'icao': 'CYNE', 'lat': 53.954166, 'lon': -97.845833, 'country': 'Canada', 'alt': 734}"
1730284745,"{'name': 'Norwich International Airport', 'iata': 'NWI', 'icao': 'EGSH', 'lat': 52.675831, 'lon': 1.282778, 'country': 'United Kingdom', 'alt': 117}"
1730284745,"{'name': 'Norwood Memorial Airport', 'iata': 'OWD', 'icao': 'KOWD', 'lat': 42.192123, 'lon': -71.176788, 'country': 'United States', 'alt': 46}"
1730284745,"{'name': 'Nosara Airport', 'iata': 'NOB', 'icao': 'MRNS', 'lat': 9.976589, 'lon': -85.652855, 'country': 'Costa Rica', 'alt': 49}"
1730284745,"{'name': 'Noshahr Airport', 'iata': 'NSH', 'icao': 'OINN', 'lat': 36.6633, 'lon': 51.464699, 'country': 'Iran', 'alt': -61}"
1730284745,"{'name': 'Nosy Be Fascene Airport', 'iata': 'NOS', 'icao': 'FMNN', 'lat': -13.312, 'lon': 48.314819, 'country': 'Madagascar', 'alt': 36}"
1730284745,"{'name': 'Notodden Airport', 'iata': 'NTB', 'icao': 'ENNO', 'lat': 59.565701, 'lon': 9.21222, 'country': 'Norway', 'alt': 63}"
1730284745,"{'name': 'Nottingham Airport', 'iata': 'NQT', 'icao': 'EGBN', 'lat': 52.919998, 'lon': -1.07917, 'country': 'United Kingdom', 'alt': 138}"
1730284745,"{'name': 'Nottingham East Midlands Airport', 'iata': 'EMA', 'icao': 'EGNX', 'lat': 52.831108, 'lon': -1.32805, 'country': 'United Kingdom', 'alt': 306}"
1730284745,"{'name': 'Nouadhibou International Airport', 'iata': 'NDB', 'icao': 'GQPP', 'lat': 20.93306, 'lon': -17.0299, 'country': 'Mauritania', 'alt': 16}"
1730284745,"{'name': 'Nouakchott Oumtounsy International Airport', 'iata': 'NKC', 'icao': 'GQNO', 'lat': 18.306103, 'lon': -15.964665, 'country': 'Mauritania', 'alt': 7}"
1730284745,"{'name': 'Noumea La Tontouta International Airport', 'iata': 'NOU', 'icao': 'NWWW', 'lat': -22.0163, 'lon': 166.216095, 'country': 'New Caledonia', 'alt': 52}"
1730284745,"{'name': 'Noumea Magenta Airport', 'iata': 'GEA', 'icao': 'NWWM', 'lat': -22.258301, 'lon': 166.472702, 'country': 'New Caledonia', 'alt': 10}"
1730284745,"{'name': 'Novato Marin County Airport', 'iata': 'NOT', 'icao': 'KDVO', 'lat': 38.143333, 'lon': -122.555832, 'country': 'United States', 'alt': 2}"
1730284745,"{'name': 'Novo Runway', 'iata': 'QAO', 'icao': 'AT17', 'lat': -70.824242, 'lon': 11.628652, 'country': 'Antarctica', 'alt': 2000}"
1730284745,"{'name': 'Novokuznetsk Spichenkovo Airport', 'iata': 'NOZ', 'icao': 'UNWW', 'lat': 53.811378, 'lon': 86.87722, 'country': 'Russia', 'alt': 1024}"
1730284745,"{'name': 'Novosibirsk Tolmachevo Airport', 'iata': 'OVB', 'icao': 'UNNT', 'lat': 55.012619, 'lon': 82.65065, 'country': 'Russia', 'alt': 365}"
1730284745,"{'name': 'Novy Urengoy Airport', 'iata': 'NUX', 'icao': 'USMU', 'lat': 66.069443, 'lon': 76.520271, 'country': 'Russia', 'alt': 210}"
1730284745,"{'name': 'Nowra Airport', 'iata': 'NOA', 'icao': 'YSNW', 'lat': -34.94849, 'lon': 150.536865, 'country': 'Australia', 'alt': 351}"
1730284745,"{'name': 'Nowy Targ Airport', 'iata': 'QPN', 'icao': 'EPNT', 'lat': 49.4631, 'lon': 20.050135, 'country': 'Poland', 'alt': 1997}"
1730284745,"{'name': 'Noyabrsk Airport', 'iata': 'NOJ', 'icao': 'USRO', 'lat': 63.183056, 'lon': 75.269165, 'country': 'Russia', 'alt': 446}"
1730284745,"{'name': 'Nueva Gerona Rafael Cabrera Airport', 'iata': 'GER', 'icao': 'MUNG', 'lat': 21.834801, 'lon': -82.783669, 'country': 'Cuba', 'alt': 66}"
1730284745,"{'name': 'Nuevo Laredo Quetzalcoatl International Airport', 'iata': 'NLD', 'icao': 'MMNL', 'lat': 27.443911, 'lon': -99.570396, 'country': 'Mexico', 'alt': 484}"
1730284745,"{'name': 'Nuiqsut Airport', 'iata': 'NUI', 'icao': 'PAQT', 'lat': 70.209724, 'lon': -151.005554, 'country': 'United States', 'alt': 38}"
1730284745,"{'name': 'Nuku Hiva Airport', 'iata': 'NHV', 'icao': 'NTMD', 'lat': -8.79472, 'lon': -140.223007, 'country': 'French Polynesia', 'alt': 220}"
1730284745,"{'name': 'Nukus Airport', 'iata': 'NCU', 'icao': 'UTNN', 'lat': 42.488411, 'lon': 59.623249, 'country': 'Uzbekistan', 'alt': 246}"
1730284745,"{'name': 'Nukutavake Airport', 'iata': 'NUK', 'icao': 'NTGW', 'lat': -19.284657, 'lon': -138.768295, 'country': 'French Polynesia', 'alt': 14}"
1730284745,"{'name': 'Nukutepipi Airport', 'iata': 'NKP', 'icao': 'NTKU', 'lat': -20.699934, 'lon': -143.045929, 'country': 'French Polynesia', 'alt': 18}"
1730284745,"{'name': 'Nulato Airport', 'iata': 'NUL', 'icao': 'PANU', 'lat': 64.729134, 'lon': -158.074646, 'country': 'United States', 'alt': 386}"
1730284745,"{'name': 'Nullagine Airport', 'iata': 'NLL', 'icao': 'YNUL', 'lat': -21.910473, 'lon': 120.197571, 'country': 'Australia', 'alt': 1269}"
1730284745,"{'name': 'Numbulwar Airport', 'iata': 'NUB', 'icao': 'YNUM', 'lat': -14.269766, 'lon': 135.71489, 'country': 'Australia', 'alt': 39}"
1730284745,"{'name': 'Nunukan Airport', 'iata': 'NNX', 'icao': 'WAQA', 'lat': 4.136772, 'lon': 117.667145, 'country': 'Indonesia', 'alt': 48}"
1730284745,"{'name': 'Nuqui Airport', 'iata': 'NQU', 'icao': 'SKNQ', 'lat': 5.709722, 'lon': -77.262497, 'country': 'Colombia', 'alt': 14}"
1730284745,"{'name': 'Nuremberg Airport', 'iata': 'NUE', 'icao': 'EDDN', 'lat': 49.498699, 'lon': 11.06689, 'country': 'Germany', 'alt': 1046}"
1730284745,"{'name': 'Nuuk Airport', 'iata': 'GOH', 'icao': 'BGGH', 'lat': 64.190918, 'lon': -51.678001, 'country': 'Greenland', 'alt': 283}"
1730284745,"{'name': 'Ny-Alesund Hamnerabben Airport', 'iata': 'QAA', 'icao': 'ENAS', 'lat': 78.92778, 'lon': 11.874722, 'country': 'Norway', 'alt': 131}"
1730284745,"{'name': 'Nyagan Airport', 'iata': 'NYA', 'icao': 'USHN', 'lat': 62.110001, 'lon': 65.610001, 'country': 'Russia', 'alt': 361}"
1730284745,"{'name': 'Nyala Airport', 'iata': 'UYL', 'icao': 'HSNL', 'lat': 12.05347, 'lon': 24.956169, 'country': 'Sudan', 'alt': 2106}"
1730284745,"{'name': 'Nyaung U Airport', 'iata': 'NYU', 'icao': 'VYBG', 'lat': 21.175343, 'lon': 94.928322, 'country': 'Myanmar (Burma)', 'alt': 312}"
1730284745,"{'name': 'Nyingchi Mainling Airport', 'iata': 'LZY', 'icao': 'ZUNZ', 'lat': 29.309076, 'lon': 94.335884, 'country': 'China', 'alt': 9560}"
1730284745,"{'name': 'Nyiregyhaza Airport', 'iata': 'QHN', 'icao': 'LHNY', 'lat': 47.983849, 'lon': 21.69232, 'country': 'Hungary', 'alt': 330}"
1730284745,"{'name': 'Nyurba Airport', 'iata': 'NYR', 'icao': 'UENN', 'lat': 63.297222, 'lon': 118.346947, 'country': 'Russia', 'alt': 409}"
1730284745,"{'name': ""O'Neill Municipal Airport"", 'iata': 'ONL', 'icao': 'KONL', 'lat': 42.450001, 'lon': -98.650002, 'country': 'United States', 'alt': 2031}"
1730284745,"{'name': 'Oakey Airport', 'iata': 'OKY', 'icao': 'YBOK', 'lat': -27.407381, 'lon': 151.740646, 'country': 'Australia', 'alt': 1336}"
1730284745,"{'name': 'Oakland International Airport', 'iata': 'OAK', 'icao': 'KOAK', 'lat': 37.721272, 'lon': -122.220001, 'country': 'United States', 'alt': 9}"
1730284745,"{'name': 'Oamaru Airport', 'iata': 'OAM', 'icao': 'NZOU', 'lat': -44.968788, 'lon': 171.080322, 'country': 'New Zealand', 'alt': 89}"
1730284745,"{'name': 'Oaxaca Xoxocotlan International Airport', 'iata': 'OAX', 'icao': 'MMOX', 'lat': 16.999901, 'lon': -96.726601, 'country': 'Mexico', 'alt': 4989}"
1730284745,"{'name': 'Oban Ryans Creek Aerodrome', 'iata': 'SZS', 'icao': 'NZRC', 'lat': -46.899685, 'lon': 168.101273, 'country': 'New Zealand', 'alt': 266}"
1730284745,"{'name': 'Oberpfaffenhofen Airport', 'iata': 'OBF', 'icao': 'EDMO', 'lat': 48.08136, 'lon': 11.28306, 'country': 'Germany', 'alt': 1947}"
1730284745,"{'name': 'Obidos Tirios Airport', 'iata': 'OBI', 'icao': 'SBTS', 'lat': 2.224521, 'lon': -55.944553, 'country': 'Brazil', 'alt': 1129}"
1730284745,"{'name': 'Obihiro Tokachi Airport', 'iata': 'OBO', 'icao': 'RJCB', 'lat': 42.73333, 'lon': 143.217194, 'country': 'Japan', 'alt': 505}"
1730284745,"{'name': 'Ocala International Airport', 'iata': 'OCF', 'icao': 'KOCF', 'lat': 29.174091, 'lon': -82.221596, 'country': 'United States', 'alt': 79}"
1730284745,"{'name': 'Ocean City Municipal Airport', 'iata': 'OCE', 'icao': 'KOXB', 'lat': 38.316666, 'lon': -75.116669, 'country': 'United States', 'alt': 11}"
1730284745,"{'name': 'Oceanside Municipal Airport', 'iata': 'OCN', 'icao': 'KOKB', 'lat': 33.217804, 'lon': -117.3526, 'country': 'United States', 'alt': 27}"
1730284745,"{'name': 'Ocho Rios Ian Fleming International Airport', 'iata': 'OCJ', 'icao': 'MKBS', 'lat': 18.40424, 'lon': -76.969002, 'country': 'Jamaica', 'alt': 90}"
1730284745,"{'name': 'Odense Hans Christian Andersen Airport', 'iata': 'ODE', 'icao': 'EKOD', 'lat': 55.476662, 'lon': 10.33093, 'country': 'Denmark', 'alt': 56}"
1730284745,"{'name': 'Odesa International Airport', 'iata': 'ODS', 'icao': 'UKOO', 'lat': 46.426762, 'lon': 30.67646, 'country': 'Ukraine', 'alt': 172}"
1730284745,"{'name': 'Odessa Schlemeyer Field Airport', 'iata': 'ODT', 'icao': 'KODO', 'lat': 31.922865, 'lon': -102.386818, 'country': 'United States', 'alt': 2972}"
1730284745,"{'name': 'Oecusse Airport', 'iata': 'OEC', 'icao': 'WPOC', 'lat': -9.19806, 'lon': 124.343002, 'country': 'Timor-Leste (East Timor)', 'alt': '-1'}"
1730284745,"{'name': 'Ogden Hinckley Airport', 'iata': 'OGD', 'icao': 'KOGD', 'lat': 41.196388, 'lon': -112.010834, 'country': 'United States', 'alt': 4470}"
1730284745,"{'name': 'Ogdensburg International Airport', 'iata': 'OGS', 'icao': 'KOGS', 'lat': 44.681862, 'lon': -75.4655, 'country': 'United States', 'alt': 297}"
